ID,id_ej,finess,rs,adresse,cpl_loc,do_prel,do_antigenic,longitude,latitude,mod_prel,public,horaire,horaire_prio,check_rdv,tel_rdv,web_rdv,date_modif
HlI2rCJ014Dk4X3Z,010001725,010001733,LBM CROIX BLANCHE BOURG EN B,51 AV AMEDEE MERCIER 01000 BOURG EN BRESSE,,OUI,NON,5.24185205182066,46.2038511077026,Sur place,Tout public,lundi : 8h00-12h00 et 14h00-19h00 | mardi : 8h00-12h00 et 14h00-19h00 | mercredi : 8h00-12h00 et 14h00-19h00 | jeudi : 8h00-12h00 et 14h00-19h00 | vendredi : 8h00-12h00 et 14h00-19h00 | samedi : 8h00-12h00 | dimanche : fermé,,Sur rendez-vous uniquement,0474452636,,2020-10-29
N6k2IZRxWgysYAUD,010009843,010009850,LBM BIOPTEAM BOURG EN B LALANDE,14 R DE LA GRENOUILLERE 01000 BOURG EN BRESSE,,OUI,NON,5.22631295949965,46.2084885923992,Sur place,Tout public,,,,0474226107,,2020-10-29
aXgKkWXOZyDwwQog,010009843,010009868,LBM BIOPTEAM BOURG EN B BRETIN,8 PL JOUBERT 01000 BOURG EN BRESSE,,OUI,NON,5.22213399470798,46.2031860200091,Sur place,Tout public,lundi : 10h00-12h00  mardi : 10h00-12h00  mercredi : 10h00-12h00  jeudi : 10h00-12h00  vendredi : 10h00-12h00  samedi : fermé  dimanche : fermé,,,0474225209,,2020-10-29
dIv6XOa41yZUSmf8,010009843,010009876,LBM BIOPTEAM VONNAS,48 PL FERDINAND DE BEOST 01540 VONNAS,,OUI,NON,4.99175034653428,46.2187859343967,Sur place,Tout public,lundi : 8h30-16h30  mardi : 8h30-16h30  mercredi : 8h30-16h30  jeudi : 8h30-16h30  vendredi : 8h30-16h30  samedi : fermé  dimanche : fermé,,,0474500517,,2020-10-29
B1J9ffrWHd9E2SSQ,020000063,020000162,CH SAINT-QUENTIN,1 R MICHEL DE L'HOSPITAL 02321 ST QUENTIN CEDEX,,OUI,NON,3.26915268288148,49.8618454092128,Sur place,Tout public,,,,,,2020-10-29
wrHHpxvrV8a3e2Er,020000253,020000394,CH LAON,33 R MARCELIN BERTHELOT 02001 LAON CEDEX,"salle de prélèvement Covid, couloir B",OUI,NON,3.61096827863758,49.5637153867027,Sur place,Tout public,lundi : 9h00-17h00 | mardi : 9h00-17h00 | mercredi : 9h00-17h00 | jeudi : 9h00-17h00 | vendredi : 9h00-17h00 | samedi : fermé | dimanche : fermé,,Sur rendez-vous uniquement,0323243260,0323243260,2020-10-29
eDgQf3jFSLF7cnLJ,020015087,020015129,LBM SYNLAB Nord de France GUISE,42 Rue Alfred Chollet 02120 Guise,"Salle Communale, rue Beauval, 02120 Guise",OUI,NON,3.627972,49.899185,Sur place,Tout public,,,Avec ou sans rendez-vous,,,2020-10-29
4eQRMAY0dWMzKyCI,020015087,020015236,LBM SYNLAB Nord de France LAON BROSSOLETTE,113 Boulevard Pierre Brossolette 02000 Laon,,OUI,NON,3.618742,49.569244,Sur place,Tout public,,,Sur rendez-vous uniquement,0323231446,,2020-10-29
sdIvIoCgBTys4lau,020015087,020015426,LBM SYNLAB Nord de France TERGNIER,110 Boulevard Gambetta 02700 Tergnier,,OUI,NON,3.287216,49.652518,Sur place,Tout public,,,Sur rendez-vous uniquement,0323570565,,2020-10-29
iBWGHKcNgaKgJARJ,020015087,020015657,LBM SYNLAB Nord de France SOISSONS,29 Rue du College 02200 Soissons,"2 rue Martin Luther King, 02064 Belleu",OUI,NON,3.32464,49.38206,Sur place,Tout public,,,Avec ou sans rendez-vous,,,2020-10-29
CVEaRpUQLyiyi3I1,020015087,020015848,LBM SYNLAB Nord de France SAINT-QUENTIN FAIDHERBE,9 AV FAIDHERBE 02100 ST QUENTIN,"Camping municipal / Auberge de jeunesse, rue Gaston Bachelard, 02100 Saint-Quentin",OUI,NON,3.28164455433242,49.8446618361253,Drive,Tout public,,,Sur rendez-vous uniquement,,,2020-10-29
xPJ6rYXuVIJ6w1Rp,020015145,020015152,LBM CORCY SOISSONS SAINT MARTIN,1 Rue Saint-martin 02200 Soissons,,OUI,NON,3.328867,49.376744,Sur place,Tout public,,,,0323532019,,2020-10-29
5lEd5virzubT7qIU,020015145,600012637,LBM CORCY NOYON,29 Avenue Jean Jaures 60400 Noyon,,OUI,NON,2.991533,49.575904,Sur place,Tout public,,,,0344931639,,2020-10-29
GELpPxjEtOWJyyna,020015277,020015285,LBM BIOMÉDIQUAL BEAUTOR,60 Rue de Tergnier 02800 Beautor,,OUI,NON,3.342459,49.658617,Sur place,Tout public/Cas contacts liste CPAM/Personnel soignant/Enfants 0-3 ans/Personnes en situation de précarité/Tout public - sur ordonnance/Malades chroniques (ALD)/Femmes enceintes/Personnes en situation de handicap/Patients ayant été atteints par le COVID-19/Militaires,lundi : 8h00-12h00  | mardi : 8h00-12h00  | mercredi : 8h00-12h00  | jeudi : 8h00-12h00  | vendredi : 8h00-12h00  | samedi : pas de ramassage cerba |  | dimanche : fermé,,Sur rendez-vous uniquement,0323563468,doctolib,2020-10-29
MBGN2q5ZmuWXgYj6,020015277,600012025,LBM BIOMÉDIQUAL NOYON ZAC,Chemin de la Haye Judas 60400 Noyon,"La Haye Juda ZA du Mont Renaud, 60400 Noyon",OUI,NON,2.981569,49.569946,Sur place,Tout public/Cas contacts liste CPAM/Personnel soignant/Enfants 0-3 ans/Femmes enceintes/Patients ayant été atteints par le COVID-19/Personnes en situation de handicap/Personnes en situation de précarité/Tout public - sur ordonnance/Malades chroniques (ALD)/Militaires,,,,0344440178,,2020-10-29
3mLQ4fQyBWNlCJnC,020015814,103700217,LBM UNILABS BIOCT BRIENNE le CHATEAU,98 Rue de l'Ecole Militaire 10500 Brienne-le-Château,Parking du laboratoire,OUI,NON,4.526172,48.393817,Drive,Tout public,lundi : 10h-11h | mardi : 10h-11h | mercredi : 10h-11h | jeudi : 10h-11h | vendredi : 10h-11h | samedi : 10h-11h | dimanche : fermé,,Sur rendez-vous uniquement,0351255055,,2020-10-29
cnuJenkRD09DybTb,020015814,103700142,LBM UNILABS BIOCT TROYES 1er Mai,28 Avenue du Premier Mai 10000 Troyes,Parking du laboratoire,OUI,NON,4.089293,48.304344,Drive,Tout public,lundi : 10h-13h | mardi : 10h-13h | mercredi : 10h-13h | jeudi : 10h-13h | vendredi : 10h-13h | samedi : fermé | dimanche : fermé,,Sur rendez-vous uniquement,0325721132,,2020-10-29
Xjw7LKDmXyBKlE6B,020015814,020015822,LBM UNILABS BIOCT CHÂTEAU-THIERRY,14 Avenue de l'Europe 02400 Château-Thierry,Parking,OUI,NON,3.400699,49.037421,Sur place,Tout public,Du lundi au vendredi 13h30 | Uniquement sur Rendez vous pris préalablement. |,,Sur rendez-vous uniquement,0323695490,,2020-10-29
tmAG3UUCMiQwKsit,020015814,510022049,LBM UNILABS BIOCT FISMES,3 R CHAUDRU 51170 FISMES,parking du laboratoire,OUI,NON,3.68377173044032,49.3066802644803,Drive,Tout public,lundi : 10h30-11h30 | mardi : 10h30-11h30 | mercredi : 10h30-11h30 | jeudi : 10h30-11h30 | vendredi : 10h30-11h30 | samedi : fermé | dimanche : fermé,,Sur rendez-vous uniquement,07 84 44 55 65,Doctolib,2020-10-29
X8rzMIXb4T7qNgNw,020015814,510022528,LBM UNILABS BIOCT EPERNAY CHAMPAGNE,4 AV DE CHAMPAGNE 51200 EPERNAY,Parking du laboratoire,OUI,NON,3.95801562897226,49.0433587575026,Sur place,Tout public,lundi : 9h00-12h00  | mardi : 9h00-12h00  | mercredi : 9h00-12h00  | jeudi : 9h00-12h00  | vendredi : 9h00-12h00 | samedi : fermé | dimanche : fermé,,Sur rendez-vous uniquement,0326511717,,2020-10-29
MHh5f2N8csJef4BS,020015814,510024144,LBM UNILABS BIOCT REIMS JAURÈS,211 AV JEAN JAURES 51100 REIMS,parking du laboratoire au 211 avenue Jean Jaures,OUI,NON,4.05369512819202,49.2627579513282,Sur place,Tout public,lundi : 8h-11h | mardi : 8h-11h | mercredi : 8h-11h | jeudi : 8h-11h | vendredi : 8h-11h | samedi : 8h-11h | dimanche : fermé,lundi : 8h00-11h00 | mardi : 8h00-11h00 | mercredi : 8h00-11h00 | jeudi : 8h00-11h00 | vendredi : 8h00-11h00 | samedi : 8h00-11h00 | dimanche : fermé,Sans rendez-vous,,,2020-10-29
BSpgWIbK3aMIUlLY,030006159,AUTRE,MAYMAT Saint-Pourçain IDE,Rue du Bourbonnais 03500 Saint-Pourçain-sur-Sioule,IDE Libérales CPTS Sud allier,OUI,NON,3.281653,46.307586,Sur place,Tout public,,,,04 70  45 32 05,,2020-10-29
uIq5sGY3bduXWh0z,030006159,AUTRE,MAYMAT Lapalisse - IDE Liberales CPTS Sud allier,Place Jean Bécaud 03120 Lapalisse,MSP - Personnel soignant,OUI,NON,3.628754,46.248931,Sur place,Tout public,,,,04 70 99 04 69,,2020-10-29
29JtSxlP0Nl9wo0l,030006159,AUTRE,Cabinet IDE,Rue les Aubrelles 03230 Beaulon,,OUI,NON,3.678582,46.600218,Sur place,Tout public,,,,04 70 42 71 53,cabinetinfirmiersbeaulon@orange.fr,2020-10-29
6uxM7wjbTojVO7Vy,030006159,AUTRE,COVID-ROOM Moulins,Pl du Mal de Lattre de Tassigny 03000 Moulins,Salle des fêtes,OUI,NON,3.330135,46.562209,Sur place,Tout public,,,,04 70 44 23 43,,2020-10-29
ip5w6xl4cooaUseV,030006159,AUTRE,IDE Libérales CPTS Sud allier,32 Rue du Champ Feuillet 03500 Saint-Pourcain-sur-Sioule,Pavillon Accueil de Jour,OUI,NON,3.282162,46.304408,Sur place,Tout public,,,Sur rendez-vous uniquement,04 70 45 32 05,,2020-10-29
7e6XfC9RKMKiqcRN,030006159,030006209,LBM MAYMAT MOULINS   FOUR,4 PL DU FOUR 03000 MOULINS,,OUI,NON,3.32971955072918,46.5649884255695,Sur place,Tout public,lundi : 14h00-18h00 | mardi : 14h00-18h00 | mercredi : 14h00-18h00 | jeudi : 14h00-18h00 | vendredi : 14h00-18h00 | samedi : 14h00-18h00 | dimanche : 14h00-18h00,,,0470448982,,2020-10-29
q2uqWyuhZ0ClDv3X,030006159,030006258,LBM MAYMAT BELLERIVE,AV DE RUSSIE 03700 BELLERIVE SUR ALLIER,,OUI,NON,3.41032866536461,46.117667196337,Sur place,Tout public,,,,0470323583,,2020-10-29
OP6MDqSPpyFENeut,030006159,030006308,LBM MAYMAT ST POURÇAIN / SIOULE,59 BD LEDRU ROLLIN 03500 ST POURCAIN SUR SIOULE,,OUI,NON,3.28972015952997,46.3091063598013,Sur place,Tout public,,,,0470456332,,2020-10-29
aPC5wV9Fbp4HI360,030006159,030006399,LBM MAYMAT VARENNES / ALLIER,4 PL DU CHAMP DE MARS 03150 VARENNES SUR ALLIER,,OUI,NON,3.4047214455751,46.3119328298699,Sur place,Tout public,lundi : 14h00-18h00 | mardi : 14h00-18h00 | mercredi : 14h00-18h00 | jeudi : 14h00-18h00 | vendredi : 14h00-18h00 | samedi : fermé | dimanche : fermé,,,0470457170,,2020-10-29
VMGmCUxd3b7l0D6B,030006159,030006449,LBM MAYMAT MONTLUÇON,5 R ALBERT EINSTEIN 03100 MONTLUCON,,OUI,NON,2.60030765545843,46.3480356529782,Sur place,Tout public,,,,0470464921,,2020-10-29
fC59wDiFTcoJA50x,030006159,580005809,LBM MAYMAT NEVERS,13 Rue de Charleville-mezieres 58000 Nevers,,OUI,NON,3.150984,46.98854,Sur place,Tout public,,,Sur rendez-vous uniquement,03 86 57 09 18,https://www.laboratoire-ferrand-jankovic-rakover.fr/ ,2020-10-29
ZG93yPclHy8SsMlQ,030006159,630011773,LBM MAYMAT CLERMONT FD,7 PL HENRI DUNANT 63000 CLERMONT FERRAND,,OUI,NON,3.08914728509551,45.7612727444089,Sur place,Tout public,,,,,,2020-10-29
WkKnQ4NgHGxthXTz,030006159,710013343,LBM MAYMAT NAVETAT BOURBON-LANCY,Rue Max Boirot 71140 Bourbon-Lancy,Salle annexe du Complexe Marc Goutheraud - rue Max Boirot,OUI,NON,3.766025,46.622304,Sur place,Tout public,lundi : 11h00-16h00 | mardi : 11h00-16h00 | mercredi : 11h00-16h00 | jeudi : 11h00-16h00 | vendredi : 11h00-16h00 | samedi : fermé | dimanche : fermé,,Sans rendez-vous,03 85 89 30 60,,2020-10-29
AcCZMmlwklrs30qD,030006498,030006589,LBM SYNLAB AUVERGNE BELLERIVE DE GAULL,8 AV DU GENERAL DE GAULLE 03700 BELLERIVE SUR ALLIER,DRIVE sous le parking couvert à l'arrière du bâtiment.,OUI,NON,3.41553110876824,46.1147000365121,Sur place,Tout public,lundi au Jeudi : 9h00-12h00 et 14h00-16h00 | vendredi : 9h00-12h00,,Sur rendez-vous uniquement,0470982110,bellerive@auvergne.synlab.fr,2020-10-29
DPjxf1xbEVvtHcBk,030006498,630015105,LBM SYNLAB AUVERGNE AUBIERE,60 Avenue de la Margeride 63170 Aubière,"DRIVE sur le parking, à l'arrière du bâtiment.",OUI,NON,3.126569,45.757671,Sur place,Tout public,lundi  au vendredi : 9h00-12h30,,Sur rendez-vous uniquement,0473777595,aubiere@auvergne.synlab.fr,2020-10-29
FDHGDbV1ltkcVERD,030780092,030000061,CH DE MOULINS,10 AV DU GENERAL DE GAULLE 03006 MOULINS CEDEX,,OUI,NON,3.32526416231874,46.5702948957609,Sur place,Tout public,7 jours / 7,,Sur rendez-vous uniquement,04 70 35 77 77,,2020-10-29
A15jrUVwGehUVU1w,030780100,030000079,CH DE MONTLUCON,18 AV DU 8 MAI 1945 03109 MONTLUCON CEDEX,Centre de consultation COVID  (téléphone 04 70 02 42 08  entre 09h et 16h30) sur RDV,OUI,NON,2.60863010567439,46.3427354736228,Sur place,Tout public,sur RDV du lundi au vendredi de 09h00  à 17h00,,,04 70 02 42 08,,2020-10-29
BC0n1OLWjPj5mxAh,040001216,040001406,LABM AUBRION STRZALKOWSKI,65 BD GASSENDI 04000 DIGNE LES BAINS,,OUI,NON,6.23474312560346,44.092645255629,Sur place,Tout public,,,,0492313169,,2020-10-29
C5RqfLIoN0N49fdq,040004376,040004400,LBM MANESQ SITE DU MANUESCA,AV DU DOCTEUR BERNARD FOUSSIER 04100 MANOSQUE,,OUI,NON,5.80485437138227,43.8293015063377,Sur place,Tout public,,,,0492724590,,2020-10-29
eGVmIWV43tcpXffZ,050000116,050000231,CH DES ESCARTONS DE BRIANCON,24 AV ADRIEN DAURELLE 05105 BRIANCON CEDEX,,OUI,NON,6.63299546616609,44.9072642695455,Sur place,Tout public,,,Sur rendez-vous uniquement,0492252348,scr_lab@ch-brianon.fr,2020-10-29
62NZ82L18UXqH0Um,050002948,050000348,CHI DES ALPES DU SUD SITE DE GAP,1 PL AUGUSTE MURET 05007 GAP CEDEX,Drive,OUI,NON,6.07326807225251,44.5563943446239,Sur place,Tout public - sur ordonnance/Cas contacts liste CPAM,"Du lundi au vendredi, 8h30-11h45, 13h30-16h30 | samedi et dimanche : fermé, contacter le Centre 15 en cas d'urgence | ",,Sur rendez-vous uniquement,0492407845,https://www.chicas-gap.fr/prenez-rendez-vous-en-ligne,2020-10-29
odFhjGW6ahjOM4p8,050007152,050007186,LBM ANABIO 05 SITE GAP/SAINT ROCH,6 R ROGER SABATIER 05000 GAP,,OUI,NON,6.06479458806369,44.5482316192373,Sur place,Tout public,lundi : 8h00-12h00 et 13h30-16h30 | mardi : 8h00-12h00 et 13h30-16h30 | mercredi : 8h00-12h00 et 13h30-16h30 | jeudi : 8h00-12h00 et 13h30-16h30 | vendredi : 8h00-12h00  | samedi : fermé | dimanche : fermé,lundi : 10h30-11h30  | mardi : 10h30-11h30  | mercredi : 10h30-11h30  | jeudi : 10h30-11h30  | vendredi : 10h30-11h30 | samedi : fermé | dimanche : fermé,,,,2020-10-29
iiIaINfXWQbu2VAp,050007749,050007756,SELARL BIOMED 05 EMBRUN,LD LA CLAPIERE 05200 EMBRUN,DRIVE,OUI,NON,6.48367753815963,44.5538380684699,Sur place,Tout public,lundi : 9h30-11h30  | mardi : 9h30-11h30 | mercredi : 9h30-11h30 | jeudi : 9h30-11h30 | vendredi : 9h30-11h30,,Sur rendez-vous uniquement,0492435072,,2020-10-29
uE0v7VVIOy0hmI7s,050007749,050007764,SELARL BIOMED 05 VEYNES,DOM DE PARASSOL 05400 VEYNES,SALLE DE PRELEVEMENT DEDIEE,OUI,NON,5.81332159212679,44.5255174029651,Sur place,Tout public,mardi : 9h30-11h30 | jeudi : 9h30-11h30,,Sur rendez-vous uniquement,0492580734,,2020-10-29
3opWt6v1HTrs436k,060021714,AUTRE,CENTRE COVID VAUBAN,18 Rue Maréchal Vauban 06300 Nice,CITE DEDIE,OUI,NON,7.286587,43.711572,Sur place,Tout public,lundi : 10h00-12h00 et 13h00-15h00  mardi : 10h00-12h00 et 13h00-15h00  mercredi : 10h00-12h00 et 13h00-15h00  jeudi : 10h00-12h00 et 13h00-15h00  vendredi : 10h00-12h00 et 13h00-15h00  samedi : fermé  dimanche : fermé,,Sur rendez-vous uniquement,0492004329,,2020-10-29
bMmTHoba3KGjayKs,060021714,060021722,LBM BARLA SITE BEAULIEU SUR MER/BERLUG,3 PL GENERAL DE GAULLE 06310 BEAULIEU SUR MER,,OUI,NON,7.33032052913883,43.7074752670387,Sur place,Tout public,Tous les jours 10h00-16h00  samedi : 10h00-12h00  dimanche : fermé,,Avec ou sans rendez-vous,0493011200,www.labo-barla.eu,2020-10-29
ypek3RPswJcHoJ92,060021714,060021730,LBM BARLA SITE NICE/BARLA,6 R BARLA 06000 NICE,,OUI,NON,7.2812835033039,43.7023140415944,Sur place,Tout public,Tous les jours 10h00-16h00  samedi : 10h00-16h00  dimanche : fermé,,Avec ou sans rendez-vous,0493554040,www.labo-barla.eu,2020-10-29
cslbXzjXiEOwhjsh,060021714,060021748,LBM BARLA SITE NICE/SAINT ROCH,41 BD LOUIS BRAILLE 06000 NICE,,OUI,NON,7.29332522842827,43.7214440454962,Sur place,Tout public,Tous les jours 10h00-16h00  samedi : 10h00-12h00  dimanche : fermé,,Avec ou sans rendez-vous,0492005019,www.labo-barla.eu,2020-10-29
pB0GE4UqNJNAF1GO,060021714,060021755,LBM BARLA SITE NICE/LEPANTE,20 R LEPANTE 06000 NICE,,OUI,NON,7.26949373996015,43.7050349729501,Sur place,Tout public,Tous les jours 10h00-16h00  samedi : 10h00-12h00  dimanche : fermé,,Avec ou sans rendez-vous,0493857744,www.labo-barla.eu,2020-10-29
cwa7PvhB3y8KT7cK,060021714,060021763,LBM BARLA SITE NICE/LAMSI,45 BD DUBOUCHAGE 06000 NICE,,OUI,NON,7.26849532455174,43.7006423506732,Sur place,Tout public,Tous les jours 10h00-16h00  samedi : 10h00-12h00  dimanche : fermé,,Avec ou sans rendez-vous,0492176565,www.labo-barla.eu,2020-10-29
dJEgwFtXtH31qGKD,060021714,060022134,LBM BARLA SITE MENTON/DE LA GARE,3 AV DE LA GARE 06500 MENTON,,OUI,NON,7.49443340816558,43.7752354148007,Sur place,Tout public,Tous les jours 10h00-16h00  samedi : 10h00-12h00  dimanche : fermé,,Avec ou sans rendez-vous,0493577979,www.labo-barla.eu,2020-10-29
VMCdk1siywthzmL0,060021714,060022142,LBM BARLA SITE CANNES LA BOCCA/FRANCIS,91 AV FRANCIS TONNER 06150 CANNES,,OUI,NON,6.97660122473711,43.5494971596639,Sur place,Tout public,Tous les jours 10h00-16h00  samedi : 10h00-12h00 dimanche : fermé,,Avec ou sans rendez-vous,0493472412,www.labo-barla.eu,2020-10-29
KzLkf0deV5qCecor,060021714,060022159,LBM BARLA SITE ANTIBES/CAP D'ANTIBES,,,OUI,NON,7.12509760064443,43.580423254734,Sur place,Tout public,Tous les jours 10h00-16h00 samedi : 10h00-12h00  dimanche : fermé,,Avec ou sans rendez-vous,0493000065,www.labo-barla.eu,2020-10-29
WPzKuMApWGjDiOFT,060021714,060022167,LBM BARLA SITE CANNES/LA GARE,4 PL DE LA GARE 06150 CANNES,,OUI,NON,7.01827205311033,43.5536118852131,Sur place,Tout public,Tous les jours 10h00-16h00  samedi : 10h00-12h00  dimanche : fermé,,Avec ou sans rendez-vous,0492980042,www.labo-barla.eu,2020-10-29
7Sv2gUZ6SDowvEnJ,060021714,060022175,LBM BARLA SITE VALLAURIS/DE LA FONTAIN,AV DE L'HOPITAL VALLAURIS 06220 VALLAURIS,,OUI,NON,7.05833014796663,43.5755285768639,Sur place,Tout public,Tous les jours 10h00-16h00  samedi : 10h00-12h00  dimanche : fermé,,Avec ou sans rendez-vous,0493645353,www.labo-barla.eu,2020-10-29
HTsytYZqRN2ozpWM,060021714,060022563,LBM BARLA SITE CAGNES SUR MER/L'EGLISE,13 R DE L EGLISE 06800 CAGNES SUR MER,,OUI,NON,7.15116927229124,43.6625140569543,Sur place,Tout public,Tous les jours 10h00-16h00  samedi : 10h00-12h00  dimanche : fermé,,Avec ou sans rendez-vous,0393209258,www.labo-barla.eu,2020-10-29
dAO4okQ1GoLBlq0V,060021714,060022571,LBM BARLA SITE GRASSE/CARNOT,1 BD CARNOT 06130 GRASSE,,OUI,NON,6.92373883093694,43.657123149434,Sur place,Tout public,Tous les jours 10h00-16h00  samedi : 10h00-12h00  dimanche : fermé,,Avec ou sans rendez-vous,0492607777,www.labo-barla.eu,2020-10-29
M9Xtx9YeWrQJUf7S,060021714,060022803,LBM BARLA SITE MANDELIEU LA NAPOULE,601 AV DE FREJUS 06210 MANDELIEU LA NAPOULE,,OUI,NON,6.93202739290793,43.5428018414077,Sur place,Tout public,Tous les jours 10h00-16h00  samedi : 10h00-12h00  dimanche : fermé,,Avec ou sans rendez-vous,0492192578,www.labo-barla.eu,2020-10-29
VgiRmbwHb1T9wFE5,060021714,060022969,LBM BARLA SITE SAINT ANDRE DE LA ROCHE,7 CHE DU SOUVENIR 06730 ST ANDRE DE LA ROCHE,,OUI,NON,7.28767722411324,43.7408843116818,Sur place,Tout public,Tous les jours 10h00-16h00  samedi : 10h00-12h00  dimanche : fermé,,Avec ou sans rendez-vous,0497000363,www.labo-barla.eu,2020-10-29
BlWctfMl9H3fTYL7,060021714,060022993,LBM BARLA SITE ST LAURENT DU VAR/CAP 3,,,OUI,NON,7.18980580229945,43.6734218778367,Sur place,Tout public,Tous les jours 10h00-16h00  samedi : 10h00-12h00  dimanche : fermé,,Avec ou sans rendez-vous,0497191900,www.labo-barla.eu,2020-10-29
UTDPs8e79F1p0tdM,060021714,060023009,LBM BARLA SITE SITE NICE/D'ARSON,8 R D'ARSON 06000 NICE,,OUI,NON,7.28657022038358,43.6993148849502,Sur place,Tout public,Tous les jours 10h00-16h00  samedi : 10h00-12h00  dimanche : fermé,,Avec ou sans rendez-vous,0493551122,www.labo-barla.eu,2020-10-29
lTHMbwb9xpv5uxdi,060021714,060025293,LBM BARLA SITE NICE/SANTA MARIA PLATEA,57 AV DE LA CALIFORNIE 06000 NICE,,OUI,NON,7.24116100625842,43.6893792186242,Sur place,Tout public,Tous les jours 10h00-16h00  samedi : 10h00-12h00  dimanche : fermé,,Sur rendez-vous uniquement,0967738205,www.labo-barla.eu,2020-10-29
iuWIcvGGAkMIVH3L,060021714,830018578,LBM MAZARIN SITE SAINT ZACHARIE/SAINTE,RTE DPT 560 QUA ST ANTOINE 83640 ST ZACHARIE,,OUI,NON,5.71036614906997,43.3874140861472,Sur place,Tout public,Tous les jours 10h00-16h00  samedi : 10h00-12h00  dimanche : fermé,,Sur rendez-vous uniquement,,,2020-10-29
JkDSH06o5zLONAhC,060021904,060005956,LBM EUROFINS LABAZUR NICE SITE PONT MICHEL,170 Route de Turin 06300 Nice,,OUI,NON,7.290245,43.723472,Sur place,Tout public,Contacter le laboratoire. Horaires variables.,,Sur rendez-vous uniquement,0422531535,https://www.eurofins-biologie-medicale.com/,2020-10-29
9ahFDfwYA6qgCbpJ,060021904,060006103,LBM EUROFINS LABAZUR NICE SITE FELIX F,10 Avenue Félix Faure 06000 Nice,,OUI,NON,7.273359,43.6983,Sur place,Tout public,lundi : 7h30-18h00 | mardi : 7h30-18h00 | mercredi : 7h30-18h00 | jeudi : 7h30-18h00 | vendredi : 7h30-18h00 | samedi : fermé | dimanche : fermé,,Sur rendez-vous uniquement,0493804040,https://www.eurofins-biologie-medicale.com/,2020-10-29
8qB92y5VfkkFeC3t,060021904,060006327,LBM EUROFINS LABAZUR NICE SITE CALIFOR - NICE,20 AV DE LA CALIFORNIE 06000 NICE,,OUI,NON,7.24348244799491,43.6909268634817,Sur place,Tout public,pas de prélèvement PCR,,Sur rendez-vous uniquement,0493860029,https://www.eurofins-biologie-medicale.com/,2020-10-29
eZoCU3j948I3mIJ1,060021904,060022688,LBM EUROFINS LABAZUR NICE SITE FLORETTE,98 AV JEAN MONNET 06500 MENTON,,OUI,NON,7.48585088582451,43.7658263298388,Sur place,Tout public,Contacter le laboratoire.,,Sur rendez-vous uniquement,0492104747,https://www.eurofins-biologie-medicale.com/,2020-10-29
tfRjIAPOowbb2oXp,060021904,060022704,LBM EUROFINS LABAZUR NICE SITE CONTES,PL DU DOCTEUR OLLIVIER 06390 CONTES,,OUI,NON,7.31466250681739,43.8103996619401,Sur place/En EHPAD,Tout public,Contacter le laboratoire. Jours et horaires variables.,,Sur rendez-vous uniquement,0493792882,https://www.eurofins-biologie-medicale.com/,2020-10-29
d8c01Kw149kStc1Z,060021912,830020723,CENTRE DE PRELEVEMENT COVID DE DRAGUIGNAN,23 Boulevard Albert Robinson 83300 Draguignan,Local dédié COVID,OUI,NON,6.472267,43.535156,Sur place,Tout public,lundi : 10h00-14h00 | mardi :10h00-14h00 | mercredi :10h00-14h00 | jeudi : 10h00-14h00 | vendredi : 10h00-14h00 | samedi : 10h00-13h00 | dimanche : fermé,lundi : 10h00-14h00 | mardi :10h00-14h00 | mercredi :10h00-14h00 | jeudi : 10h00-14h00 | vendredi : 10h00-14h00 | samedi : 10h00-14h00 | dimanche : fermé,Sur RDV  sauf cas symptomatiques urgents,,https://rdv-testcovid.fr,2020-11-13
9Cc2VUjip9nbAOC9,060021912,830018347,CENTRE DE PRELEVEMENT COVID DE FREJUS/SAINT RAPHAEL,1637 Av Mal de Lattre de Tassigny 83600 Fréjus,Local dédié COVID,OUI,NON,6.76235,43.429113,Sur place,Tout public,lundi : 8h00-16h00 | mardi : 8h00-16h00 | mercredi :8h00-16h00 | jeudi : 8h00-16h00 | vendredi :8h00-16h00 | samedi :  fermé | dimanche : fermé,lundi : 8h00-16h00 | mardi : 8h00-16h00 | mercredi :8h00-16h00 | jeudi : 8h00-16h00 | vendredi :8h00-16h00 | samedi :  fermé | dimanche : fermé,Sur RDV  sauf cas symptomatiques urgents,,https://rdv-testcovid.fr,2020-11-13
OSgJt5QZOXj8pWUt,060021912,830020137,CENTRE DE PRELEVEMENT COVID DE HYERES,Chemin des Nartettes 83400 Hyères,Local dédié COVID,OUI,NON,6.131026,43.106441,Sur place,Tout public,lundi : 10h00-12h00 et 14h00-16h00 | mardi :10h00-12h00 et 14h00-16h00 | mercredi :10h00-12h00 et 14h00-16h00 | jeudi :10h00-12h00 et 14h00-16h00 | vendredi : 10h00-12h00 et 14h00-16h00 | samedi : 9h00-11h00 | dimanche : fermé,lundi : 10h00-12h00 et 14h00-16h00 | mardi :10h00-12h00 et 14h00-16h00 | mercredi :10h00-12h00 et 14h00-16h00 | jeudi :10h00-12h00 et 14h00-16h00 | vendredi : 10h00-12h00 et 14h00-16h00 | samedi : 9h00-11h00 | dimanche : fermé,Sur RDV  sauf cas symptomatiques urgents,,https://rdv-testcovid.fr,2020-11-13
PubsOmi06DM0lliH,060021912,830020707,CENTRE DE PRELEVEMENT COVID DE TOULON EST ( MOURILLON),Rue President Robert Schuman 83000 Toulon,Local dédié COVID,OUI,NON,5.936141,43.113252,Sur place,Tout public,lundi : 10h00-12h00 et 14h00-16h00 | mardi :10h00-12h00 et 14h00-16h00 | mercredi :10h00-12h00 et 14h00-16h00 | jeudi :10h00-12h00 et 14h00-16h00 | vendredi : 10h00-12h00 et 14h00-16h00 | samedi : 8h00-10h00 | dimanche : fermé,lundi : 10h00-12h00 et 14h00-16h00 | mardi :10h00-12h00 et 14h00-16h00 | mercredi :10h00-12h00 et 14h00-16h00 | jeudi :10h00-12h00 et 14h00-16h00 | vendredi : 10h00-12h00 et 14h00-16h00 | samedi : 8h00-10h00 | dimanche : fermé,Sur RDV  sauf cas symptomatiques urgents,,https://rdv-testcovid.fr,2020-11-13
NDrRtfCQjPbNSX1Z,060021912,060023124,CENTRE DE PRELEVEMENT COVID DE CAGNES SUR MER,50 Chemin du Val Fleuri 06800 Cagnes-sur-Mer,Local dédié COVID,OUI,NON,7.171274,43.664897,Sur place,Tout public,lundi : 9h00-11h00 et 13h00-15h00 | mardi : 14h00-16h00 | mercredi : 9h00-11h00 et 13h00-15h00 | jeudi : 9h00-11h00 et 13h00-15h00 | vendredi :9h00-11h00 et 13h00-15h00 | samedi : fermé | dimanche : fermé,lundi : 9h00-11h00 et 13h00-15h00 | mardi : 14h00-16h00 | mercredi : 9h00-11h00 et 13h00-15h00 | jeudi : 9h00-11h00 et 13h00-15h00 | vendredi :9h00-11h00 et 13h00-15h00 | samedi : fermé | dimanche : fermé,Sur RDV  sauf cas symptomatiques urgents,,https://rdv-testcovid.fr,2020-11-13
k4qBsYzqDn1uZuAF,060021912,060023132,CENTRE DE PRELEVEMENT COVID DE GRASSE,57 chemin de la chapelle saint antoine 06130 GRASSE,Local dédié COVID,OUI,NON,43.64495,6.93065,Sur place,Tout public,lundi : 10h00-12h00  | mardi :10h00-12h00 | mercredi : 10h00-12h00 | jeudi : 10h00-12h00  | vendredi : 1h00-12h00 | samedi : fermé | dimanche : fermé,lundi : 10h00-12h00  | mardi :  10h00-12h00  | mercredi :  10h00-12h00  | jeudi : 10h00-12h00  | vendredi :  10h00-12h00  | samedi : fermé | dimanche : fermé,Sur RDV  sauf cas symptomatiques urgents,,https://rdv-testcovid.fr,2020-11-13
pKkCmCfcMjMg0FaG,060021912,060022084,CENTRE DE PRELEVEMENT COVID DE MOUGINS,Ecoparc MOUGINS 550 Chemin de Font de Currault Face au parking de la pinede 06250 MOUGINS,Local dédié COVID,OUI,NON,7.00241088867188,43.6097309749151,Sur place,Tout public,lundi : 9h00-12h00 | mardi : 9h00-12h00 | mercredi :  9h00-12h00 | jeudi : 9h00-12h00 | vendredi : 9h00-12h00 | samedi : 9h00-11h00 | dimanche : fermé,lundi : 9h00-12h00 | mardi : 9h00-12h00 | mercredi :9h00-12h00 | jeudi :9h00-12h00 | vendredi : 9h00-12h00 | samedi : 9h00-11h00 | dimanche : fermé,Sur RDV  sauf cas symptomatiques urgents,,https://rdv-testcovid.fr,2020-11-13
5D2jhbTfB1tohUic,060021912,060023710,CENTRE DE PRELEVEMENT COVID DE NICE,6 Avenue Félix Faure 06000 Nice Parking MASSENA Niveau -1 ( face galeries Lafayette),Local dédié COVID,OUI,NON,7.274589,43.6986,Sur place,Tout public,lundi : 10h00-13h00 et 14h00-17h00 | mardi :10h00-13h00 et 14h00-17h00 | mercredi : 10h00-13h00 et 14h00-17h00 | jeudi : 10h00-13h00 et 14h00-17h00 | vendredi : 10h00-13h00 et 14h00-17h00 | samedi : 10h00-12h00 | dimanche : fermé,lundi : 10h00-13h00 et 14h00-17h00 | mardi : 10h00-13h00 et 14h00-17h00 | mercredi : 10h00-13h00 et 14h00-17h00 | jeudi : 10h00-13h00 et 14h00-17h00 | vendredi : 10h00-13h00 et 14h00-17h00 | samedi : 10h00-12h00 | dimanche : fermé,Sur RDV  sauf cas symptomatiques urgents,,https://rdv-testcovid.fr,2020-11-13
KjlxVR5uW1E8quUd,060021912,060022613,CENTRE DE PRELEVEMENT COVID DE VALLAURIS,Route de Vallauris 06220 Vallauris,Local dédié COVID,OUI,NON,7.06722,43.57299,Sur place,Tout public,lundi : 10h00-12h00 et 14h00-16h00 | mardi :10h00-12h00 et 14h00-16h00 | mercredi : 10h00-12h00 et 14h00-16h00 | jeudi :10h00-12h00 et 14h00-16h00 | vendredi :10h00-12h00 et 14h00-16h00 | samedi : 9h00-10h30 | dimanche : fermé,lundi :10h00-12h00 et 14h00-16h00 | mardi : 10h00-12h00 et 14h00-16h00 | mercredi : 10h00-12h00 et 14h00-16h00 | jeudi : 10h00-12h00 et 14h00-16h00 | vendredi : 10h00-12h00 et 14h00-16h00 | samedi : 9h00-10h30 | dimanche : fermé,Sur RDV  sauf cas symptomatiques urgents,,https://rdv-testcovid.fr,2020-11-13
fhxKVHB6c9vhS0qF,060021912,060021979,CENTRE DE PRELEVEMENT COVID DE VENCE,Salle des pompiers Parking de la Rousse 320 Avenue Rhin et Danube  06140 VENCE,Local dédié COVID,OUI,NON,7.19262040483757,43.7729019864415,Sur place,Tout public,lundi : 14h00-16h00 | mardi :  9h30-11h30 et 14h00-16h30 | mercredi : 9h30-11h30 et 16h30-17h30 | jeudi : 9h30-11h30  | vendredi : 10h00-12h00  | samedi : fermé | dimanche : fermé,lundi : 14h00-16h00 | mardi :  9h30-11h30 et 14h00-16h30 | mercredi : 9h30-11h30 et 16h30-17h30 | jeudi : 9h30-11h30  | vendredi : 10h00-12h00  | samedi : fermé | dimanche : fermé,Sur RDV  sauf cas symptomatiques urgents,,https://rdv-testcovid.fr,2020-11-13
lMu3dAEO6ZcU4aq5,060021912,060023074,CENTRE DE PRELEVEMENT COVID DU CANNET,730 Avenue Georges Pompidou 06110 Le Cannet,Local dédié COVID,OUI,NON,6.984347,43.56935,Sur place,Tout public,lundi : 10h00-12h00 et 14h00-16h00 | mardi : 10h00-12h00 et 14h00-16h00 | mercredi :10h00-12h00 et 14h00-16h00 | jeudi :10h00-12h00 et 14h00-16h00 | vendredi :10h00-12h00 et 14h00-16h00 | samedi : 9h30-11h30 | dimanche : fermé,lundi : 10h00-12h00 et 14h00-16h00 | mardi : 10h00-12h00 et 14h00-16h00 | mercredi : 10h00-12h00 et 14h00-16h00 | jeudi : 10h00-12h00 et 14h00-16h00 | vendredi : 10h00-12h00 et 14h00-16h00 | samedi : 9h30-13h30 | dimanche : fermé,Sur RDV  sauf cas symptomatiques urgents,,https://rdv-testcovid.fr,2020-11-13
3lw4V6Humwsw4H1E,060021912,060022605,CENTRE DE PRELEVEMENT COVID DE CANNES,29 Boulevard de la Ferrage 06400 Cannes,Local dédié COVID,OUI,NON,7.014054,43.553261,Sur place,Tout public,lundi : 10h00-11h30 et  14h00-15h30 | mardi : 10h00-11h30 et  14h00-15h30 | mercredi :10h00-11h30 et  14h00-15h30 | jeudi : 10h00-11h30 et  14h00-15h30 | vendredi : 10h00-11h30 et  14h00-15h30 | samedi : 9h00-11h00 | dimanche : fermé,lundi : 10h00-11h30 et  14h00-15h30 | mardi :10h00-11h30 et  14h00-15h30 | mercredi : 10h00-11h30 et  14h00-15h30 | jeudi : 10h00-11h30 et  14h00-15h30 | vendredi :10h00-11h30 et  14h00-15h30 | samedi : 9h00-11h00 | dimanche : fermé,Sur RDV  sauf cas symptomatiques urgents,,https://rdv-testcovid.fr,2020-11-13
sRzp1ewUGMwWQm3q,060021912,060022001,CENTRE DE PRELEVEMENT COVID D'ANTIBES,les espaces du Fort Carré  67 avenue du 11 Novembre  06600 ANTIBES,Local dédié COVID,OUI,NON,7.1184699982092,43.5862637536498,Sur place,Tout public,lundi : 10h00-13h00 et 14h00-17h00 | mardi :  10h00-13h00 et 14h00-17h00 | mercredi : 10h00-13h00 et 14h00-17h00 | jeudi : 10h00-13h00 et 14h00-17h00 | vendredi : 10h00-13h00 et 14h00-17h00 | samedi : 9h00-11h00 | dimanche : fermé,lundi :  10h00-13h00 et 14h00-17h00 | mardi : 10h00-13h00 et 14h00-17h00 | mercredi :  10h00-13h00 et 14h00-17h00 | jeudi : 10h00-13h00 et 14h00-17h00 | vendredi :  10h00-13h00 et 14h00-17h00 | samedi : 9h00-11h00 | dimanche : fermé,Sur RDV  sauf cas symptomatiques urgents,,https://rdv-testcovid.fr,2020-11-13
87kQIM7wM7D2WUsm,060021912,060021979,CENTRE DE PRELEVEMENT COVID DE CARROS,Salle des plans de Carros Place Frescolini 06510 CARROS,Local dédié COVID,OUI,NON,7.19262040483757,43.7729019864415,Sur place,Tout public,lundi : 13h-15h30 | mardi : 13h-15h30 | mercredi :13h-15h30 | jeudi :13h-15h30 | vendredi :13h-15h30 | samedi : fermé | dimanche : fermé,lundi : 13h-15h30 | mardi :  13h-15h30 | mercredi : 13h-15h30 | jeudi :  13h-15h30 | vendredi : 13h-15h30 | samedi : fermé | dimanche : fermé,Sur RDV  sauf cas symptomatiques urgents,,https://rdv-testcovid.fr,2020-11-13
QRQn3ELGqvICJ4p4,060021912,060021953,CENTRE DE PRELEVEMENT COVID D'OPIO,Rond-Point de la Font-Neuve 06650 Opio,Local dédié COVID,OUI,NON,7.04932343854336,43.6667864548589,Sur place,Tout public,L-V 11h-13h 14h-15h,L-V 11h-13h 14h-15h,Sur RDV  sauf cas symptomatiques urgents,,https://rdv-testcovid.fr,2020-11-13
nTe5If4fI6AtEWOd,060021912,060021920,CENTRE DE PRELEVEMENT COVID DE MANDELIEU,Rond-point de l'Espace les petits princes 06210 MANDELIEU LA NAPOULE,Local dédié COVID,OUI,NON,6.93456172943115,43.5401181616527,Sur place,Tout public,Du L. au V.: 10h-12h et 14h-17h S: 9h30-11h30,Du L. au V.: 10h-12h et 14h-17h S: 9h30-11h30,Sur RDV  sauf cas symptomatiques urgents,,https://rdv-testcovid.fr,2020-11-13
b10KhSzsRSTnI16x,060021912,060022084,LBM BIOESTEREL SITE Mougins - L'Espérance,80 ALL DES ORMES 06250 MOUGINS,Local dédié: Ecoparc 550 chemin de Font de Currault 06250 MOUGINS,OUI,NON,7.01346623932508,43.6108898731921,En EHPAD/En étab. santé/Equipe mobile,Tout public,Du Lundi au Vendredi : 9h-12h,Du Lundi au Vendredi : 9h-12h | Le Samedi: urgences au laboratoire sur RDV,Sur RDV  sauf cas symptomatiques urgents,04.92.28.20.00,https://rdv-testcovid.fr,2020-11-13
e4yBW5qIRWEbJOiA,060021912,060023652,LBM BIOESTEREL SITE PEYMEINADE,39 AV DE BOUTINY 06530 PEYMEINADE,DRIVE,OUI,NON,6.88157986004857,43.6432978464446,Sur place/Drive/En EHPAD,Tout public,,,Sur RDV  sauf cas symptomatiques urgents,04.93.66.41.10,https://rdv-testcovid.fr,2020-11-13
ol6B2V19OQDo0O6s,060021912,060023892,LBM BIOESTEREL SITE VILLENEUVE LOUBET,51 CHE DU PAS DE BONNE-HEURE 06270 VILLENEUVE LOUBET,,OUI,NON,7.1232886423386,43.6573674287135,Sur place/En EHPAD,Tout public,,,Sur RDV  sauf cas symptomatiques urgents,0493225810,https://rdv-testcovid.fr,2020-11-13
m6qJHCWrkYUyblUk,060021912,830018354,LBM BIOESTEREL SITE Draguignan - Notre Dame,345 AV BROSSOLETTE 83300 DRAGUIGNAN,,OUI,NON,6.45235104381849,43.5331045141883,Sur place/A domicile/En EHPAD/En étab. santé,Tout public,,,Sur RDV  sauf cas symptomatiques urgents,04.94.67.46.69,https://rdv-testcovid.fr,2020-11-13
6ZwRhp0FSUmI2y8Z,060021912,830020152,LBM BIOESTEREL SITE CAVALAIRE,AV DES ALLIES LE CADUCEE 83240 CAVALAIRE SUR MER,DRIVE,OUI,NON,6.52817131209046,43.1712818322832,Sur place/Drive/En EHPAD/En étab. santé,Tout public,,,Sur rendez-vous uniquement,04.94.64.00.98,https://covid19.biogroup.fr.,2020-11-13
aMepEWzc0v1sZzXr,060021912,830020160,LBM BIOESTEREL SITE LA CROIX VALMER,R LOUIS MARTIN 83420 LA CROIX VALMER,,OUI,NON,6.56830492812689,43.2080346340645,A domicile/En EHPAD/En étab. santé/Sur place,Tout public,,,Sur rendez-vous uniquement,,https://covid19.biogroup.fr.,2020-11-13
RB5XkIgkpr0Qtsx1,060021912,830025094,LBM BIOESTEREL SITE LA VALETTE PAUL VALERY,32 Avenue Paul Valery 83160 La Valette-du-Var,DRIVE,OUI,NON,5.990986,43.130123,Sur place/A domicile/En EHPAD/En étab. santé,Tout public,lundi : 9h30-13h00 et 14h00-16h00 | mardi : 9h30-13h00 et 14h00-16h00 | mercredi : 9h30-13h00 et 14h00-16h00 | jeudi :9h30-13h00 et 14h00-16h00 | vendredi : 9h30-13h00 et 14h00-16h00 | samedi : 10h00-11h00 | dimanche : fermé,lundi : 9h30-13h00 et 14h00-16h00 | mardi : 9h30-13h00 et 14h00-16h00 | mercredi : 9h30-13h00 et 14h00-16h00 | jeudi :9h30-13h00 et 14h00-16h00 | vendredi : 9h30-13h00 et 14h00-16h00 | samedi : 10h00-11h00 | dimanche : fermé,Sur RDV  sauf cas symptomatiques urgents,0497066261,https://rdv-testcovid.fr,2020-11-13
9M0Uwo3SQusGlbrr,080010077,AUTRE,Cabinet Vellenriter,119 Boulevard Gambetta 08000 Charleville-Mézières,Cabinet IDE,OUI,NON,4.708572,49.772894,Sur place/A domicile,Tout public,tous les jours sur rendez-vous à domicile ou au cabinet.,,Sur rendez-vous uniquement,0618030614,,2020-11-14
PzvtI7GssglWR9Fj,080010077,AUTRE,Maison de Santé de Signy-Le-Petit,45 Rue Nicolas de Rumigny 08380 Signy-le-Petit,Maison de Santé,OUI,NON,4.280545,49.898409,Sur place,Tout public,"lundi, mercredi et jeudi 19h à 20h",,Sur rendez-vous uniquement,0972760168,,2020-11-14
llwPjfJ5zj8jEshL,080010077,AUTRE,Maison de Santé de Mouzon,6 Rue Jean Claude Stoltz 08210 Mouzon,Maison de Santé,OUI,NON,5.072646,49.60623,Sur place,Tout public,"lundi, mercredi et vendredi de 14h à 16h",,Sur rendez-vous uniquement,0972760168,,2020-11-14
p6oWcXBmddMAi62H,080010077,AUTRE,Maison de Santé de Machault,2 bis Promenade des Tilleuls 08310 Machault,Maison de Santé,OUI,NON,4.502577,49.355412,Sur place,Tout public,1h du lundi au vendredi (horaire non défini),,Sur rendez-vous uniquement,0972760168,,2020-11-14
xYpoAjq8WGXzN2or,080010077,AUTRE,Maison des Services,Route de Revin 08500 Les Mazures,Maison de Santé,OUI,NON,4.626494,49.889008,Sur place,Tout public,vendredi de 12h15 à 14h15,,Sur rendez-vous uniquement,0972760168,,2020-11-14
aKDIGy58XHtHEiXN,080010077,AUTRE,Maison de Santé de Douzy,76 Route Nationale 08140 Douzy,Maison de Santé,OUI,NON,5.036886,49.671237,Sur place,Tout public,pas de jour fixe : selon les créneaux ouverts,,Sur rendez-vous uniquement,0972760168,,2020-11-14
YI5qFyuAir6kKHlL,080010077,AUTRE,Maison de Santé de Carignan,23 Avenue de Blagny 08110 Carignan,Maison de Santé,OUI,NON,5.170132,49.629496,Sur place,Tout public,lundi : 11h30-13h30 | mardi : 11h30-13h30 | mercredi : 11h30-13h30 | jeudi : 11h30-13h30 | vendredi : 11h30-13h30,,Sur rendez-vous uniquement,0972760168,,2020-11-14
1RHTM5VlPTS7BTWu,080010077,AUTRE,Maison de Santé de Rimogne,733 Rue Pasteur 08150 Rimogne,Maison de Santé,OUI,NON,4.52971,49.843041,Sur place,Tout public,lundi : 12h30-13h30 | mercredi : 12h30-13h30 | vendredi : 12h30-13h30 |,,Sur rendez-vous uniquement,0972760168,,2020-11-14
j0HmZ37i9NzoLeZh,080010077,AUTRE,Maison de Santé d'Asfeld,2 Rue du Docteur Landes 08190 Asfeld,Maison de Santé,OUI,NON,4.110414,49.462426,Sur place,Tout public,du lundi au vendredi de 10h15 à 11h. |,,Sur rendez-vous uniquement,0972760168,,2020-11-14
ZIBHjdPlaXJGODrL,080010077,AUTRE,Maison de Santé de Rocroi,25 Rue Royale 08230 Rocroi,Maison de Santé,OUI,NON,4.529436,49.930231,Sur place,Tout public,mardi : 13h00-15h00 | jeudi : 13h00-15h00 |,,Sur rendez-vous uniquement,0972760168,,2020-11-14
QC9NYe94chPYfVfv,080010077,AUTRE,EQUIPE MOBILE DE PRELEVEMENT DEPARTEMENTALE,1 Rue Pierre Hallali 08000 Charleville-Mézières,au domicile dans l’incapacité de se déplacer ou dépendant,OUI,NON,4.72211,49.787489,A domicile/Equipe mobile,Tout public,à la demande,,Sur rendez-vous uniquement,0634091449 0324568819,,2020-11-14
w44Rnm3xd4ojpCR7,080010077,080010085,LBM BIO ARD'AISNE - RETHEL,R ANTOINE SAINT EXUPERY 08300 RETHEL,Drive sur le parking,OUI,NON,4.37157563265413,49.5070652884481,Drive/Sur place,Tout public,"tous les après-midi en semaine de 14h00 à 16H00. |  | Prélèvement de bilans préopératoire tous les jours de 9h30 à 11h.  |  | Le samedi, de 09h30 à 11h.","tous les après-midi en semaine de 14h00 à 16H00. |  | Prélèvement de bilans préopératoire tous les jours de 9h30 à 11h.  |  | Le samedi, de 09h30 à 11h.",Sur rendez-vous uniquement,0351254971,www.covid08.fr,2020-11-14
q6AX2guwGoxnjSsU,080010077,080010093,LBM BIO ARD'AISNE - CHARLEVILLE MEZIERES,131 AV CARNOT 08000 CHARLEVILLE MEZIERES,Drive sur le parking,OUI,NON,4.72494883832109,49.7489955517396,Drive/Sur place,Tout public,"tous les après-midi de 13h45 à 16h en semaine. Le samedi, 9h30-11h15.","tous les après-midi de 13h45 à 16h en semaine. Le samedi, 9h30-11h15.",Sur rendez-vous uniquement,0351254969,https://www.ubiclic.com/autre/charleville-mezieres/drive-prelevement-bio-charleville-carnot,2020-11-14
IBDLf9pXVgzTzvBv,080010077,080010101,LBM BIO ARD'AISNE - CHARLEVILLE MEZIERES,7 R DUBOIS CRANCE 08000 CHARLEVILLE MEZIERES,Dans le laboratoire,OUI,NON,4.71568883252963,49.7721784304291,Sur place,Tout public,du lundi au vendredi de 10h à 12h. Site réservé aux bilans préopératoires et aux bilans avant voyages.,,Sur rendez-vous uniquement,0351254969,,2020-11-14
JDPVc6bpK1DwxhtD,080010077,080010127,LBM GIVET,Esplanade Aime et Jules Rivir 08600 Givet,Drive sur le parking,OUI,NON,4.81847,50.140039,Sur place/Drive,Tout public,lundi : 11h30-12h30 | mardi :11h30-12h30 | mercredi : 11h30-12h30 | jeudi : 11h30-12h30 | vendredi : 11h30-12h30,lundi : 11h30-12h30 | mardi :11h30-12h30 | mercredi : 11h30-12h30 | jeudi : 11h30-12h30 | vendredi : 11h30-12h30,Sur rendez-vous uniquement,0351254974,https://www.ubiclic.com/autre/givet/drive-prelevement-bio-ard-aisne-givet,2020-11-14
eaV2irfPkbVY6Yqm,080010077,080010143,LBM BALAN,109 Avenue Charles de Gaulle 08200 Balan,Drive sur le parking,OUI,NON,4.966983,49.688162,Sur place/Drive,Tout public,du lundi au vendredi de 10h à 11h30 sur rendez-vous.,du lundi au vendredi de 10h à 11h30 sur rendez-vous.,Sur rendez-vous uniquement,0351254973,https://www.ubiclic.com/autre/autre/drive-prelevement-bio-ard-aisne-balan-1,2020-11-14
fqkdGlSPUcDZikIg,080010077,080010234,LBM  COURS BRIAND,64 CRS BRIAND 08000 CHARLEVILLE MEZIERES,"Drive piéton au 105 cours Briand, en face du laboratoire",OUI,NON,4.71927258874378,49.767131306083,Sur place,Tout public,du lundi au vendredi de 9h à 12h,du lundi au vendredi de 9h à 12h,Sur rendez-vous uniquement,0351254969,www.covid08.fr,2020-11-14
GWP2NGMZ21F0LzTX,080010077,080010507,LBM VOUZIERS,25 R GAMBETTA 08400 VOUZIERS,Drive piéton,OUI,NON,4.69991752264466,49.3958802551442,Sur place/Drive,Tout public,"lundi, mardi, jeudi et vendredi de 9h45 à 11h30 | en dehors de ces plages, merci de vous rapprocher du laboratoire de Rethel.","lundi, mardi, jeudi et vendredi de 9h45 à 11h30 | en dehors de ces plages, merci de vous rapprocher du laboratoire de Rethel.",Sur rendez-vous uniquement,0351254972,https://www.ubiclic.com/autre/vouziers/drive-prelevement-bio-ard-aisne-vouziers,2020-11-14
aQrUeDLaVQhLrqyT,080010077,510023518,LBM REIMS LUTON,7 Rue de Neufchatel 51100 Reims,"Drive dans la rue de Neufchâtel (du 1 au 7 rue de Neufchâtel), le long du laboratoire situé au 81 Place Luton Reims",OUI,NON,4.026113,49.271145,Drive/Sur place,Tout public,Du lundi au vendredi de 08h à 11h30 et de 14h30 à 18h. | Le samedi de 8h à 11h30.,Du lundi au vendredi de 08h à 11h30 et de 14h30 à 18h. | Le samedi de 8h à 11h30.,Sur rendez-vous uniquement,0351254970,https://bioardaisne.covidexpress.fr/patient,2020-11-14
WRUcT7YRtQl4cjXJ,080011174,080000425,CH CHARLEVILLE - HOPITAL MANCHESTER,45 AV DE MANCHESTER 08011 CHARLEVILLE MEZIERES CEDEX,,OUI,NON,4.69511813853849,49.7616857412433,Sur place,Tout public,lundi : 9h00 - 14h00 | mardi : 9h00 - 14h00 | mercredi : 9h00 - 14h00 | jeudi : 9h00 - 14h00 | vendredi : 9h00 - 14h00 | samedi :9h00 - 14h00 | dimanche : 9h00 - 14h00,,,,,2020-10-29
b1ghGNbLRgWs3pEN,090003195,090003203,LBM ARIEGE BIOLOGIE MEDICALE ST-GIRONS,16 AV HENRI BERNERE 09200 ST GIRONS,DRIVE,OUI,NON,1.14360347771321,42.9871261091609,Drive/Sur place,Tout public,Sur rendez vous à 10h30 du lundi au vendredi,,Sur rendez-vous uniquement,0561662118,,2020-10-29
xBfT5HXsQlNXDZwj,090003195,090003211,LBM ARIEGE BIOLOGIE MEDICALE PAMIERS,8 R SAINT VINCENT 09100 PAMIERS,DRIVE,OUI,NON,1.60715438850831,43.1127148684673,Drive/Sur place,Tout public,Sur rendez vous à 11h30 du lundi au vendredi,,Sur rendez-vous uniquement,0561671401,,2020-10-29
0iv8eFlix64Y66hW,090003278,090003286,GCS BIOLOGIE TERRITOIRE DE L ARIEGE - FOIX,09000 FOIX,urgences,OUI,NON,1.6052418748859,42.9641109387251,Sur place,Tout public,lundi : 8h00-12h00 et 14h00-19h00 | mardi : 8h00-12h00 et 14h00-19h00 | mercredi : 8h00-12h00 et 14h00-19h00 | jeudi : 8h00-12h00 et 14h00-19h00 | vendredi : 8h00-12h00 et 14h00-19h00 | samedi : 8h00-12h00 | dimanche : fermé,,24/24 aux urgences du chiva,,,2020-10-29
IltT9L672CWMoZqe,090003278,090003294,GCS BIOLOGIE TERRITOIRE DE L ARIEGE - ST GIRONS,09201 ST GIRONS CEDEX,urgences,OUI,NON,1.14609274721,42.9828555580486,Sur place,Tout public,,,24/24 aux urgences du CHAC,0561962811,,2020-10-29
woOjuTyBxTHeIm7E,090781774,090000175,CHIVAL SITE FOIX,CHE DU BARRAU 09000 FOIX,Service des urgences et autres services,OUI,NON,1.61587144401614,43.0285432019787,Sur place,Tout public,,,,05 61 03 31 00,,2020-10-29
iae3b6QE6SNwuQ8X,100000017,100000090,CENTRE HOSPITALIER DE TROYES,101 AV ANATOLE FRANCE 10003 TROYES CEDEX,localisé à l'Ecole d'infirmières,OUI,NON,4.06881061786514,48.279896709454,Sur place,Tout public,"Prise de rendez vous obligatoire (du Lundi au vendredi) de 9h à 16h30  au 03-25-49-77-78 | UNIQUEMENT Sur rendez vous, les prélèvements sont réalisés du Lundi au Samedi de 9h à 12h et de 13h à 16h. Le Dimanche de 9H à 12h. | Prescription médicale non obligatoire | La priorité sera donnée aux patients présentant des symptômes ou aux personnes contact. | Vu l'afflux de demandes, les prélèvements COVID avant un voyage ne sont plus réalisés au CHT. |  | ",,Sur rendez-vous uniquement,0325497778,,2020-10-29
d7YX7GOzoAqAiCjF,100000017,100003219,INST DE FORMATION EN SOINS INFIRMIERS,2 AV DES LOMBARDS 10000 TROYES,,OUI,NON,4.06725878267952,48.2781569645501,Sur place,Tout public,lundi : 8h00-12h00 et 14h00-19h00 | mardi : 8h00-12h00 et 14h00-19h00 | mercredi : 8h00-12h00 et 14h00-19h00 | jeudi : 8h00-12h00 et 14h00-19h00 | vendredi : 8h00-12h00 et 14h00-19h00 | samedi : 8h00-12h00 | dimanche : fermé,"Prise de rendez vous obligatoire (du Lundi au vendredi) de 9h à 16h30  au 03-25-49-77-78 | UNIQUEMENT Sur rendez vous, les prélèvements sont réalisés du Lundi au Samedi de 9h à 12h et de 13h à 16h. Le Dimanche de 9H à 12h. | Prescription médicale non obligatoire | La priorité sera donnée aux patients présentant des symptômes ou aux personnes contact. | Vu l'afflux de demandes, les prélèvements COVID avant un voyage ne sont plus réalisés au CHT.",Sur rendez-vous uniquement,0325497778,,2020-10-29
nSHSrR4vgJrCeWhB,100009521,100009547,LABORATOIRE DU 1ER RAM,15 Boulevard du 1er Ram 10000 Troyes,,OUI,NON,4.071821,48.291619,Sur place,Tout public,lundi : 9h- 12h et 14h -16h | mardi : 9h- 12h et 14h -16h | mercredi : 9h- 12h et 14h -16h | jeudi : 9h- 12h et 14h -16h | vendredi : 9h- 12h et 14h -16h,lundi : 14h00-16h00 | mardi : 14h00-16h00 | mercredi : 14h00-16h00 | jeudi : 14h00-16h00 | vendredi : 14h00-16h00 |  |,Sur rendez vous uniquement,03 25 43 42 30,https://www.doctolib.fr/laboratoire/troyes/dynalab-troyes?pid=practice-27117,2020-11-02
UbbesisyRgwiOBa5,100009521,AUTRE,CENTRE SANTE CHAPELAIN,42 Avenue Jean Moulin 10600 La Chapelle-Saint-Luc,,OUI,NON,4.035374,48.308588,Sur place,Tout public,,,Sur rendez vous uniquement,03 25 71 70 63,,2020-11-02
5ARp1nowio23wL0r,100009521,AUTRE,IDE LIBERAUX,1 Place Georges Clemenceau 10370 Villenauxe-la-Grande,,OUI,NON,3.553385,48.589495,Sur place,Tout public,mercredi : 14h00-16h00 |,,Sur rendez vous uniquement,06 08 16 05 52 ou 03 25 24 17 15,,2020-11-02
7pXFfJbfA9ghUtjr,100009521,AUTRE,IDE LIBERAUX,1 Place Georges Clemenceau 10370 Villenauxe-la-Grande,,OUI,NON,3.553385,48.589495,Sur place,Tout public,jeudi : 14h00-17h00 |,,Sur rendez-vous uniquement,03 25 21 52 40,,2020-11-02
8Qu335dFAJoWf4J1,100009521,AUTRE,IDE LIBERAUX,6 bis Rue du Stade 10110 Bar-sur-Seine,,OUI,NON,4.373033,48.120063,Sur place,Tout public,lundi-mercredi-vendredi de 13h à 15h15,,Sur rendez-vous uniquement,03 25 29 82 41,,2020-11-02
BNIjDWmJWNjWjIjA,100009521,AUTRE,IDE LIBERAUX,Rue Docteur Georgel 10160 Aix-Villemaur-Pâlis,,OUI,NON,3.740198,48.222348,Sur place,Tout public,du lundi au vendredi de 14h à 16h,,Sur rendez-vous uniquement,06 62 22 13 47,,2020-11-02
I9hYumbpBRYdT73Y,100009521,AUTRE,IDE LIBERAUX,1 Avenue de la République 10140 Vendeuvre-sur-Barse,,OUI,NON,4.485879,48.238526,Sur place,Tout public,sur RDV,,Sur rendez-vous uniquement,0325731417,,2020-11-02
NZEKmgOGHxeKqFsm,100009521,AUTRE,IDE LIBERAUX,"1 avenue de la Republique, 10140 Vendeuvre sur barse",,OUI,NON,4.70215,48.235536,Sur place,Tout public,les lundi-mercredi-vendredi de 14h a 16h,,Sur rendez-vous uniquement,03 25 43 84 35,,2020-11-02
kLJj1VKu92dnrIlJ,100009521,AUTRE,IDE LIBERAUX,14 Rue Jean Moulin 10100 Romilly-sur-Seine,,OUI,NON,3.721256,48.516425,Sur place,Tout public,sur RDV,,Sur rendez-vous uniquement,07 49 44 70 47,,2020-11-02
D8tJu22CgryclD0s,100009521,AUTRE,IDE LIBERAUX,21 Rue du Canal Terray 10400 Nogent-sur-Seine,,OUI,NON,3.4897,48.485708,Sur place,Tout public,mardi mercredi et jeudi de 14h à 18h,,Sur rendez-vous uniquement,07 86 99 74 02,,2020-11-02
xy680z3wlSaNaEdZ,100009521,AUTRE,IDE LIBERAUX,Rue Georges Flizot 10170 Méry-sur-Seine,,OUI,NON,3.902366,48.511734,Sur place,Tout public,mardi et jeudi de 9h à 10h30 | vendredi 22 mai 9h-10h30,,Sur rendez-vous uniquement,06 35 58 07 96,,2020-11-02
kDCHacD0Dknp4DEA,100009521,AUTRE,IDE LIBERAUX,1 Place Georges Clemenceau 10370 Villenauxe-la-Grande,,OUI,NON,3.553385,48.589495,Sur place,Tout public,mercredi de 10h à 12h,,Sur rendez-vous uniquement,03 25 25 78 49,,2020-11-02
0ie7cRlxxJAreXwW,100009521,100009455,LBM  DYNALAB,23 R DE L'HOTEL DIEU 10400 NOGENT SUR SEINE,,OUI,NON,3.50058470536928,48.4934196262158,Sur place,Tout public,lundi : prélèvement Covid de 14h00-16h00 | mardi : prélèvement Covid de 14h00-16h00 | mercredi: pas de prélèvement | jeudi : prélèvement Covid de 14h00-16h00 | vendredi : prélèvement Covid de 14h00-16h00 | samedi : pas de prélèvement Covid | dimanche : fermé,,Sur rendez-vous uniquement,0325390298,,2020-11-02
xLGcE1IyurH0POPL,100009521,100009539,LBM DYNALAB - ROMILLY SUR SEINE,51 R CARNOT 10100 ROMILLY SUR SEINE,,OUI,NON,3.72960190813373,48.5150708810154,Sur place,Tout public,,,Sur rendez-vous uniquement,0325396726,,2020-11-02
PRwdaWcOEx9eQ8Ru,100009521,100009562,LBM DYNALAB - BAR SUR AUBE,,,OUI,NON,4.70274215167445,48.2360657672453,Sur place,Tout public,,,Sur rendez-vous uniquement,0325923980,,2020-11-02
xG1fFftOEGpLm0zT,100009711,100009729,LBM BIOLINE UNILABS - TROYES,28 AV DU 1ER MAI 10000 TROYES,,OUI,NON,4.08929332594268,48.3043432996935,Sur place,Tout public,lundi : 10h00-13h00 | mardi : 10h00-13h00 | mercredi : 10h00-13h00 | jeudi : 10h00-13h00 | vendredi : 10h00-13h00 | samedi : pas de prélèvements COVID | dimanche : fermé,,Sur rendez-vous uniquement,0325721132,,2020-10-29
D1ajQcmaBvj93hku,100009711,100009737,LBM BIOLINE UNILABS - LA CHAPELLE ST LUC,5 R ROGER SALENGRO 10600 LA CHAPELLE ST LUC,,OUI,NON,4.05107323557746,48.3113006533781,Sur place,Tout public,,,Sur rendez-vous uniquement,,,2020-10-29
aeu5kqfW3Zocy33h,100009711,100009745,LBM BIOLINE UNILABS - STE SAVINE,142 AV GALLIENI 10300 STE SAVINE,,OUI,NON,4.04778488798263,48.2931411397465,Sur place,Tout public,,,Sur rendez-vous uniquement,,,2020-10-29
zcJlnJVrP3HPBBOa,100009711,100010727,LBM BIOLINE UNILABS BRIENNE,98 R DE L'ECOLE MILITAIRE 10500 BRIENNE LE CHATEAU,,OUI,NON,4.5261717943116,48.3938168556489,Sur place,Tout public,lundi : 10h00-11h00 | mardi : 10h00-11h00 | mercredi : 10h00-11h00 | jeudi : 10h00-11h00 | vendredi : 10h00-11h00 | samedi : variable (contacter le labo) | dimanche : fermé,,Sur rendez-vous uniquement,0351255055,,2020-10-29
bmetANNLtKrkT4Rs,110005634,090002973,LBM CERBALLIANCE LANGUEDOC LAVELANET,24 AV DR BERDANAC 09300 LAVELANET,DRIVE,OUI,NON,1.85148185238259,42.9376390913903,Drive/Sur place,Tout public,lundi : 14h00-17h00 | mardi : 14h00-17h00 | mercredi : 14h00-17h00 | jeudi : 14h00-17h00 | vendredi : 14h00-17h00 | samedi : 11h00-12h00 | dimanche : fermé,,Sur rendez-vous uniquement,0534090090,,2020-10-29
mbaYD9uE6RO5ndqa,110005634,110005642,LBM CERBALLIANCE LANGUEDOC  QUILLAN,6 PL SALENGRO 11500 QUILLAN,DRIVE,OUI,NON,2.18091560028569,42.8737741965715,Drive/Sur place,Tout public,lundi : 10h00-12h00 | mardi : 10h00-12h00 | mercredi : 10h00-12h00 | jeudi : 10h00-12h00 | vendredi : 10h00-12h00 | samedi : 10h00-11h00 | dimanche : fermé,,Sur rendez-vous uniquement,0468200597,,2020-10-29
GimgascUUfeLmfOG,110005634,110005964,LBM CERBALLIANCE LANGUEDOC LIBERTE CAS,30 PL DE LA LIBERTE 11400 CASTELNAUDARY,DRIVE,OUI,NON,1.95317597345987,43.3193666802412,Drive/Sur place,Tout public,samedi : 12h00-13h00 | dimanche : fermé,,Sur rendez-vous uniquement,0468234786,,2020-10-29
GOPhXPULxUdSgbcp,110005634,110005972,LBM CERBALLIANCE LANGUEDOC PORT CASTEL,7 QU DU PORT 11400 CASTELNAUDARY,DRIVE,OUI,NON,1.95338139882462,43.3155172352856,Drive/Sur place,Tout public,lundi au vendredi  : 11h00-13h00 et 14h00-16h00 | samedi :  fermé | dimanche : fermé,,Sur rendez-vous uniquement,0468233030,,2020-10-29
txXbEu5i4hxrOBO3,110005634,310024161,LBM CERBALLIANCE LANGUEDOC VILLEFRANCHE,4 AV DU  GENERAL SARRAIL 31290 VILLEFRANCHE DE LAURAGAIS,DRIVE,OUI,NON,1.71532820336136,43.398829661737,Drive/Sur place,Tout public,lundi : 12h00-14h00 | mardi :12h00-14h00 | mercredi : 12h00-14h00 | jeudi : 12h00-14h00 | vendredi : 12h00-14h00 | samedi : 12h00-13h00 | dimanche : fermé,,Sur rendez-vous uniquement,0561816152,doctolib.fr,2020-10-29
DgymJEaRZSg7nXzD,110005667,090002981,LBM SELARL BIOD'OC PAMIERS,11 RTE DE FOIX 09100 PAMIERS,,OUI,NON,1.62093417336545,43.1034646437426,Sur place,Tout public,,,Sur rendez-vous uniquement,0561670984,,2020-10-29
JaIa12VeLfUnD27l,110005667,090002999,LBM SELARL BIOD'OC FOIX,10 AV GENERAL DE GAULLE 09000 FOIX,,OUI,NON,1.60897849968034,42.9626806457993,Sur place,Tout public,,,,0534093390,,2020-10-29
Z8KjPjanekA53yOQ,110005667,110005675,LBM BIO D'OC CARCASSONNE BRAM CLINIQUE,92 bis Route de Bram 11000 Carcassonne,salle dédiée Covid,OUI,NON,2.328145,43.213302,Drive/Sur place,Tout public/Enfants 0-3 ans,,,,0468119100,,2020-10-29
MHVSlzeNhgiTnbrI,110005667,110005691,LBM BIO D'OC LIMOUX,16 AV OSCAR ROUGE 11300 LIMOUX,,OUI,NON,2.2161654333572,43.0561554899881,Sur place,Tout public,,,,0468311272,,2020-10-29
4QZJJzGHclgQUUuo,110005667,110007150,LBM BIO D'OC LEZIGNAN CORBIERES,28 R DES ROMAINS 11200 LEZIGNAN CORBIERES,,OUI,NON,2.75594315821653,43.1858859773712,Sur place,Tout public,,,,0468270093,,2020-10-29
OvsGBYu6i0hD4Ja1,110005667,110788924,LBM BIO D'OC TREBES,58 BD DU MINERVOIS 11800 TREBES,,OUI,NON,2.45622542831534,43.2082772671802,Sur place,Tout public,,,,0468788969,,2020-10-29
78M6HAjHGmTb6aje,110005667,310027495,LBM BIOD'OC REVEL,,,OUI,NON,2.00816790427207,43.4575990807848,Sur place,Tout public,,,,0561247070,,2020-10-29
TxE0UgpdlP3vrODk,110005840,110005808,LBM CBL AVICENNE,2 AV MARECHAL JUIN 11000 CARCASSONNE,DRIVE parking du laboratoire au niveau de la contre-allée parallèle à la chambre des métiers au niveau de la tente.,OUI,NON,2.37209183947383,43.2125773823687,Drive/Sur place/A domicile/En EHPAD/En étab. santé,Tout public,lundi : 8h00-12h30 et 13h30-19h00 | mardi : 8h00-12h30 et 13h30-19h00 | mercredi : 8h00-12h30 et 13h30-19h00 | jeudi :8h00-12h30 et 13h30-19h00 | vendredi : 8h00-12h30 et 13h30-19h00 | samedi : 8h00-12h00 | dimanche : fermé,,Sur rendez-vous uniquement,0468727970 ou 0468717479,,2020-10-29
OAvhJgd0YniWzmwT,110005840,110005857,LBM CBL NARBONNE,12 Avenue Pierre et Marie Curie 11100 Narbonne,Drive sur le parking du laboratoire,OUI,NON,3.003237,43.179026,Drive/Sur place/En EHPAD/En étab. santé/A domicile,Tout public,lundi : 8h-14h | mardi : 8h-14h | mercredi : 8h-14h | jeudi : 8h-14h | vendredi : 8h-14h | samedi : 8h-14h | dimanche : fermé,,Sur rendez-vous uniquement,0468902989 ou 0672082947,,2020-10-29
SPYTu6vz6Ui8jwWF,110005840,340019355,LBM CBL SERIGNAN,1 R JOSEPH LAZARE 34410 SERIGNAN,DRIVE: Stade Aita 2 rue Roger Salingro Serignan,OUI,NON,3.28215160994645,43.2794605609406,Drive/En EHPAD/A domicile/En étab. santé,Tout public,lundi : 8h00-12h00 et 14h00-19h00 | mardi : 8h00-12h00 et 14h00-19h00 | mercredi : 8h00-12h00 et 14h00-19h00 | jeudi : 8h00-12h00 et 14h00-19h00 | vendredi : 8h00-12h00 et 14h00-19h00 | samedi : 8h00-12h00 | dimanche : fermé,,Sur rendez-vous uniquement,0467324055  0619577468,,2020-10-29
vSp50c6KLrDvVrs3,110005840,340024389,LBM CBL BEZIERS,17 AV DE LA VOIE DOMITIENNE 34500 BEZIERS,Drive sur le parking du laboratoire,OUI,NON,3.24195632880196,43.3465245198284,Drive/Sur place/En EHPAD/En étab. santé,Tout public,lundi : 7h00-19h00 | mardi : 7h00-19h00 | mercredi : 7h00-19h00 | jeudi : 7h00-19h00 | vendredi : 7h00-19h00 |  |,,Sur rendez-vous uniquement,0499479797,,2020-10-29
Fbsc5tIhtWAkNRAl,110780061,110000023,CH CARCASSONNE,1060 CHE DE LA MADELEINE 11010 CARCASSONNE CEDEX 9,,OUI,NON,2.39991654241787,43.2191070261999,Sur place,Tout public,,,,0468242006 ou 0468242424,,2020-10-29
vdCCxCKMCUIfpuu1,110780137,110000056,CH NARBONNE HOTEL DIEU,BD DOCTEUR LACROIX 11108 NARBONNE CEDEX,,OUI,NON,3.00011307837999,43.180618452757,Sur place,Tout public,,,,0468426100 ou 0468426000,,2020-10-29
4MFfmWhSytRs7AJI,120004528,120004569,CH MILLAU,265 BD ACHILLE SOUQUES 12101 MILLAU CEDEX,,OUI,NON,3.05190732983615,44.0929498377714,Sur place,Tout public,,,,0565593000,,2020-10-29
DWg4IbzFJTdGP3I9,120004619,120004668,CH EMILE BOREL ST AFFRIQUE,88 AV DR LUCIEN GALTIER 12402 ST AFFRIQUE CEDEX,,OUI,NON,2.8745294731334,43.958138864729,Sur place,Tout public,,,,0565497022,,2020-10-29
F7Fn7MoSNQbpZ5vs,120006309,120783949,Centre de Soins infirmiers - MSP Laguiole,4 bis Rue du Pont Romain 12210 Laguiole,box de soins à l'arrière de la MSP avec accès direct vers l'extérieur,OUI,NON,2.846466,44.685946,Sur place,Tout public,"lundi, mardi, jeudi, vendredi matin sur RDV de 11h à 11h45",,Sur rendez-vous uniquement,05 65 44 37 18,,2020-11-26
v9zJsGg2k8s8SfAt,120006309,120782990,Centre de Soins de Nant,Route de Millau 12230 Nant,DRIVE parking centre de soins,OUI,NON,3.297601,44.026682,Sur place,Tout public,mardi et jeudi de 11h30 à 12h30 | ,,Sur rendez-vous uniquement,05 65 62 25 91,,2020-11-26
Lt2fyqPewlU2FdKE,120006309,120783022,Centre de Soins de Laissac,114 Avenue de Rodez 12310 Laissac-Sévérac l'Église,DRIVE parking centre de soins,OUI,NON,2.82127,44.381455,Sur place,Tout public,lundi au vendredi de 11h00 à 13h00,,Sur rendez-vous uniquement,05 65 69 67 85,,2020-11-26
R36jpu7nWxgVXndy,120006309,120783162,Centre de Santé de Marcillac,2 Avenue Gustave Bessiere 12330 Marcillac-Vallon,local centre de soins,OUI,NON,2.461336,44.474404,Sur place,Tout public,mardi : 11h00-12h00  |,,Sur rendez-vous uniquement,05 65 71 80 75,,2020-11-26
3arp540M5IA8mlTz,120006309,120783089,ASDIL Pont de Salars,route de Rodez 12290 Pont de Salars,local centre de soins,OUI,NON,2.461336,44.474404,Sur place,Tout public,lundi au vendredi : 11h à 12h30,,Sur rendez-vous uniquement,05 65 46 83 44,,2020-11-26
wCaqUEBEvxrnd1Qp,120006309,120006895,LBM LXBIO PLATEAU TECHNIQUE,105 Avenue de la Gineste 12000 Rodez,DRIVE - Uniquement le dimanche,OUI,NON,2.555636,44.363525,Sur place,Tout public,,,Sur rendez-vous uniquement,,,2020-11-26
XHGNBTsp4yzH6sRH,120006309,120783154,CSI Infirmier Villefranche de Panat,Avenue du Lac 12430 Villefranche-de-Panat,tente situé devant le centre de soins,OUI,NON,2.703613,44.087714,Sur place,Tout public,,,Sur rendez-vous uniquement,05 65 46 57 09,,2020-11-26
wfRRO71LZn8oYItq,120006309,120783014,CDS infirmier Réquista,2 Boulevard Vicomtes de Cadars 12170 Réquista,LABORATOIRE DE SECTEUR LxBIO LA PRIMAUBE  7 avenue de Rodez 12450 LA PRIMAUBE,OUI,NON,2.537588,44.032288,Sur place,Tout public,10h30 à 11h15 du lundi au vendredi | Le samedi orientation vers le laboratoire LxBIO de La Primaube,,Sur rendez-vous uniquement,05 65 74 04 32,,2020-11-26
iajnLcEjFPkOf395,120006309,DRIVE,MSP DU CARLADEZ - MUR DE BARREZ,Grand Rue 12600 Mur-de-Barrez,LABORATOIRE DE SECTEUR LxBIO ESPALION - 4 av d'Estaing - 12500 ESPALION,OUI,NON,2.660244,44.844106,Sur place,Tout public,11h à 12h du lundi au vendredi | Le samedi orientation vers le laboratoire LxBIO d'Espalion,,Sur rendez-vous uniquement,05 65 66 03 42,,2020-11-26
CELUMam6bFXKBIQO,120006309,120006317,LBM LxBIO RODEZ CENTRE,22 R BETEILLE 12000 RODEZ,,OUI,NON,2.57296249029546,44.3526455353311,Sur place,Tout public,Lundi au vendredi :prélèvement de 18h à 19h | Samedi : prélèvement de 12h00 à 12h30,,Sur rendez-vous uniquement,0565683006,,2020-11-26
5dvP3rodxmNQMW2j,120006309,120006325,LBM LxBIO LA PRIMAUBE,7 AV DE RODEZ 12450 LUC LA PRIMAUBE,,OUI,NON,2.55931077725517,44.2932299236717,Sur place,Tout public,Lundi au vendredi :prélèvement de 16h à 17h | Samedi : prélèvement de 12h00 à 12h30,,Sur rendez-vous uniquement,05.65.71.47.71,,2020-11-26
MgnFroZ616sUXmVN,120006309,120006333,LBM LxBIO BARAQUEVILLE,29 Avenue de Marengo 12160 Baraqueville,,OUI,NON,2.430161,44.277347,Sur place,Tout public,Lundi au vendredi : prélèvements de 12h à 12h30 | Le samedi : orientation vers le laboratoire de La Primaube,,Sur rendez-vous uniquement,05 65 71 20 90,,2020-11-26
jnUirZOzuyfcOkPk,120006309,120006341,LBM LxBIO RODEZ BOURRAN,R JEAN MONNET 12000 RODEZ,,OUI,NON,2.55907955002138,44.3571474545711,Sur place,Tout public,pas de prélèvements réalisés dans ce laboratoire.  | Orientation au Laboratoire LxBIO 22 rue Béteille à Rodez ou le centre UDSMA rue Carrère.,,Sans rendez-vous,05 65 68 00 17,,2020-11-26
51nHv8iesxTKvXjW,120006309,120006358,LBM LxBIO ESPALION,4 AV D ESTAING 12500 ESPALION,,OUI,NON,2.76431120773221,44.524639610117,Sur place,Tout public,|Lundi au vendredi : prélèvements de 16h à 17h | Samedi : prélèvement de 12h00 à 12h30 |  |  |,,Sur rendez-vous uniquement,05.65.48.14.46,,2020-11-26
OuVwHYDn6zI352zH,120006309,120006366,LBM LxBIO ONET-LE-CHÂTEAU,6 BD DES CAPUCINES 12000 ONET LE CHATEAU,,OUI,NON,2.59179401036268,44.3682476590564,Sur place,Tout public,mardi au vendredi : prélèvements de 16h à 17h (fermé le lundi) | Samedi : prélèvement de 11h30 à 12h,,Sur rendez-vous uniquement,05.65.42.45.04,,2020-11-26
PCoMXqv8A3aLR9BG,120006309,120006382,LBM LxBIO MILLAU JAURÈS,37 AV JEAN JAURES 12100 MILLAU,,OUI,NON,3.07952516662623,44.1028571188084,Sur place,Tout public,Lundi au vendredi : prélèvements de 16h à 17h | Samedi : prélèvement de 10h30 à 11h30,,Sur rendez-vous uniquement,05.65.60.10.13,,2020-11-26
D0FnCGiiFrq0XYOG,120006309,120006390,LBM LxBIO DECAZEVILLE,3 PL CABROL 12300 DECAZEVILLE,,OUI,NON,2.2543683931783,44.5586806020492,Sur place,Tout public,Lundi au vendredi : prélèvements de 14h à 16h | Samedi : prélèvements de 11h à 12h,,Sur rendez-vous uniquement,05.65.43.13.85,,2020-11-26
Xko3vcTBb5kShaWv,120006309,120006408,LBM LxBIO VILLEFRANCHE-DE-ROUERGUE,PL FONTANGE 12200 VILLEFRANCHE DE ROUERGUE,,OUI,NON,2.03136108266667,44.3537355039446,Sur place,Tout public,Lundi au vendredi : prélèvements de 15h à 16h | Samedi : prélèvements de 12h00 à 12h30,,Sur rendez-vous uniquement,05.65.45.11.37,,2020-11-26
CChyKg1RPIJB078D,120006309,120006606,LBM LxBIO ST-AFFRIQUE,1 PL LONJON RAYNAUD 12400 ST AFFRIQUE,,OUI,NON,2.88872331753008,43.9576979505584,Sur place,Tout public,Lundi au vendredi : prélèvements de 15h30 à 16h30 | Samedi : prélèvements de 11h00 à 12h00,,Sur rendez-vous uniquement,05.65.99.06.07,,2020-11-26
xSwRz6Tk8u3uEzhw,120006309,120006861,LBM LxBIO SÉVÉRAC D'AVEYRON,AV DU GENERAL DE GAULLE 12150 SEVERAC D AVEYRON,,OUI,NON,3.0676786569899,44.3197318502553,Sur place,Tout public,Lundi au jeudi : prélèvement de 10h à 11h | Les autres jours : orientation sur le Laboratoire LxBIO  de Millau,,Sur rendez-vous uniquement,05.65.42.13.58,,2020-11-26
awxC2CSJ6qx8glxg,120780044,120000039,CH DE RODEZ HOPITAL JACQUES PUEL,AV DE L'HOPITAL 12027 RODEZ CEDEX 9,Service des urgences et autres services,OUI,NON,2.554847407305,44.3595617852544,Sur place,Tout public,,,,0565552719 ou 0565551212,,2020-10-29
TmeRk33H1XCCfqwg,120780069,120000054,CH VILLEFRANCHE SITE CHARTREUSE,AV CAYLET 12200 VILLEFRANCHE DE ROUERGUE,Service des urgences et autres services,OUI,NON,2.0321179371098,44.3423354510432,Sur place,Tout public,,,,0565653000,,2020-10-29
y3jyASyniv8pWYJH,120780069,120008248,SSR CH VILLEFRANCHE SITE RULHE,AV CAYLET 12200 VILLEFRANCHE DE ROUERGUE,,OUI,NON,2.0321179371098,44.3423354510432,Sur place,Tout public,,,,,,2020-10-29
3MRkE5fspLvool15,120780069,120008776,CPEF CH VILLEFRANCHE DE ROUERGUE,3 Avenue Joseph Caylet 12200 Villefranche-de-Rouergue,,OUI,NON,2.032329,44.343806,Sur place,Tout public,,,,,,2020-10-29
zPRWiQatKwx4eF9J,120780069,120782263,USLD CH VILLEFRANCHE SITE RULHE,RULHE 12200 VILLEFRANCHE DE ROUERGUE,,OUI,NON,2.02988489062594,44.3854295475664,Sur place,Tout public,,,,,,2020-10-29
qqr0t6mniUq6lH3c,120780069,120783303,EHPAD CH VILLEFRANCHE SITE CHARTREUSE,R DU BOSQUET 12200 VILLEFRANCHE DE ROUERGUE,,OUI,NON,2.03433030451992,44.3441265230006,Sur place,Tout public,,,,,,2020-10-29
mS037lwnOk33ntab,120780069,120785191,EHPAD CH VILLEFRANCHE SITE RULHE,RULHE 12200 VILLEFRANCHE DE ROUERGUE,,OUI,NON,2.02988489062594,44.3854295475664,Sur place,Tout public,,,,,,2020-10-29
zXJbKu6GtiD59xRD,120780085,120000070,CH PIERRE DELPECH DECAZEVILLE,60 AV PROSPER ALFARIC 12300 DECAZEVILLE,Service des urgences et autres services,OUI,NON,2.25186148563113,44.5691231022663,Sur place,Tout public,,,,0565437171,,2020-10-29
Hn47r6NSwAfwH0Wv,130016116,130016124,SELARL BIO CASAMANCE,33 BD DES FARIGOULES 13400 AUBAGNE,,OUI,NON,5.53127177949949,43.2762992675956,Sur place,Cas contacts liste CPAM/Tout public - sur ordonnance,lundi : 15h00-17h00 | mardi :15h00-17h00 | mercredi : 15h00-17h00 | jeudi : 15h00-17h00 | vendredi : 15h00-17h00 | samedi : __ | dimanche : __,,Sur rendez-vous uniquement,0491247050,,2020-10-29
FUc9wXj9cKpK3gXZ,130021546,130021553,LABM LEBAN,126 Avenue de Saint Louis 13015 Marseille,,OUI,NON,5.359212,43.347153,Sur place,Tout public,,,Sur rendez-vous uniquement,0491608847,,2020-10-29
qkTlITmShtl64Cql,130039340,130039357,LBM BIOLOGIE MEDICALE SAMBOURG SITE VI - VITROLLES,PL DE LA MAIRIE 13127 VITROLLES,,OUI,NON,5.25054816964858,43.4594718994761,Sur place,Tout public,,,Sans rendez-vous,0442159494,,2020-10-29
4H6ykhBtGnpcK6x0,130039340,130039365,LBM BIOLOGIE MEDICALE SAMBOURG SITE VI - VITROLLES,11 R BEL AIR ZAC DE LA TUILIERE 13127 VITROLLES,,OUI,NON,5.26920842796216,43.4257022881145,Sur place,Tout public,,,Sans rendez-vous,0442460006,,2020-10-29
owUFBZIz2yM8gHX0,130039340,130039373,LBM BIOLOGIE MEDICALE SAMBOURG SITE AI - AIX EN PROVENCE,8 R CHARLOUN RIEU BT LE VALCROS 13080 AIX EN PROVENCE,,OUI,NON,5.39349883043293,43.5080287752913,Sur place,Tout public,,,Sans rendez-vous,0442593559,,2020-10-29
Nf0NFj4qN4aSnkb6,130039340,130039381,LBM BIOLOGIE MEDICALE SAMBOURG SITE CA,AV CDT HELION DE VILLENEUVE 13480 CABRIES,,OUI,NON,5.3527435485877,43.4608098201255,Sur place,Tout public,,,Sans rendez-vous,0442692021,,2020-10-29
123nqWGeUy8bRPpR,130039340,130039399,LBM BIOLOGIE MEDICALE SAMBOURG SITE AI - AIX EN PROVENCE,14 R DE LA FOURANE 13080 AIX EN PROVENCE,en Drive,OUI,NON,5.44555154636005,43.513407910404,Drive/Sur place,Tout public,,,Sans rendez-vous,0442380008,,2020-10-29
dkmO43aBtwC8GTiv,130039340,130039407,LBM BIOLOGIE MEDICALE SAMBOURG SITE CO,LD FONT PETUGE 13111 COUDOUX,en Drive,OUI,NON,5.2512444401521,43.5580864145366,Drive/Sur place,Tout public,,,Sans rendez-vous,0442159495,,2020-10-29
JfI3tAehVCxZnWPY,130039340,130050495,LBM BIOLOGIE MEDICAL SAMBOURG SITE AIX,35 R DE LA DEESSE HESTIA 13080 AIX EN PROVENCE,,OUI,NON,5.34179125828629,43.4878856220271,Sur place,Tout public,,,Sans rendez-vous,0442159492,,2020-10-29
eDtYmr567pANKRtL,130039514,130039522,LBM BRUNY MEYNARD MATTON PERRAUD SITE - SALON DE PROVENCE,111 R DES FRERES KENNEDY 13300 SALON DE PROVENCE,salle dédiée Covid19,OUI,NON,5.09621716975705,43.6424861693495,Sur place,Tout public,lundi : 8h00-12h00 et 14h00-19h00 | mardi : 8h00-12h00 et 14h00-19h00 | mercredi : 8h00-12h00 et 14h00-19h00 | jeudi : 8h00-12h00 et 14h00-19h00 | vendredi : 8h00-12h00 et 14h00-19h00 | samedi : 8h00-12h00 | dimanche : fermé,,,0490561366,,2020-10-29
lkxHfvP2rBtpgQmW,130039563,130039233,LBM LABOSUD PROVENCE BIOLOGIE SITE MAR - MARTIGUES,5 R EDOUARD AMAVET 13117 MARTIGUES,local dédié,OUI,NON,5.05325572567181,43.4014693222101,Sur place,Tout public,lundi : 07h30-18h30 | mardi : 07h30-18h30 | mercredi : 07h30-18h30 | jeudi :07h30-18h30 | vendredi :07h30-18h30 | samedi : 07h30-12h30 | dimanche : fermé,,sur rendez vous,04 42 81 65 48,,2020-10-29
c1fKEkz67rJzRKFL,130039563,130039241,LBM LABOSUD PROVENCE BIOLOGIE SITE FOS,55 R RENE CASSIN BAT LE TITIEN 13270 FOS SUR MER,,OUI,NON,4.94440291211545,43.4547287806707,Sur place,Tout public,lundi : 07h30-19h00 | mardi : 07h30-19h00 | mercredi : 07h30-19h00 | jeudi :07h30-19h00 | vendredi :07h30-19h00 | samedi : 07h30-12h30 | dimanche : fermé,,sur rendez vous,04 42 11 33 00,,2020-10-29
zUZG56KwZq4sTBis,130039563,130039258,LBM LABOSUD PROVENCE BIOLOGIE SITE IST - ISTRES,23 R DE LA POUTRE 13118 ISTRES,,OUI,NON,4.98998221108133,43.5053114463137,Sur place,Tout public,lundi : 7h00-18h00 | mardi : 7h00-18h00 | mercredi : 7h00-18h00 | jeudi :7h00-18h00 | vendredi : 7h00-18h00 | samedi : 7h30-12h00 | dimanche : fermé,,sur rendez vous,04 42 55 65 65,,2020-10-29
h16kW4TUYzvQolWn,130039563,130039266,LBM LABOSUD PROVENCE BIOLOGIE SITE MAR - MARIGNANE,2 AV JEAN JAURES 13700 MARIGNANE,,OUI,NON,5.21809833410131,43.4182757889423,Sur place,Tout public,lundi : 7h00-19h00  | mardi : 7h00-19h00  | mercredi :7h00-19h00  | jeudi : 7h00-19h00  | vendredi : 7h00-19h00  | samedi : 7h00-12h30 | dimanche : fermé,,sur rendez vous,04 42 31 71 03,,2020-10-29
e3PP6c9NL1aBGgs7,130039563,130039274,LBM LABOSUD PROVENCE BIOLOGIE SITE MIR - MIRAMAS,23 AV CHARLES DE GAULLE 13140 MIRAMAS,,OUI,NON,5.00115296146326,43.5823418132811,Sur place,Tout public,lundi : 7h00-19h00  | mardi : 7h00-19h00  | mercredi :7h00-19h00  | jeudi : 7h00-19h00  | vendredi : 7h00-19h00  | samedi : 7h00-12h00 | dimanche : fermé,,sur rendez vous,04 90 50 38 50,,2020-10-29
mIR9IEML1pT3pzim,130039563,130039571,LBM LABOSUD PROVENCE BIOLOGIE SITE MAR - MARSEILLE,581 AV DE MAZARGUES 13009 MARSEILLE,,OUI,NON,5.39466252437697,43.253112350487,Sur place,Tout public,lundi : 6h30-19h00  | mardi : 6h30-19h00  | mercredi :6h30-19h00  | jeudi : 6h30-19h00  | vendredi : 6h30-19h00  | samedi : 7h00-12h00 | dimanche : fermé,,sur rendez vous,04 91 77 80 71,,2020-10-29
ylZw0EGVNMblGTZb,130039563,130039589,LBM LABOSUD PROVENCE BIOLOGIE SITE MIC,429 AV DE MAZARGUES 13008 MARSEILLE,,OUI,NON,5.39457337650409,43.2586184151982,Sur place,Tout public,lundi : 7h00-19h00  | mardi : 7h00-19h00  | mercredi :7h00-19h00  | jeudi : 7h00-19h00  | vendredi : 7h00-19h00  | samedi : 7h00-12h00 | dimanche : fermé,,sur rendez vous,04 91 77 75 00,,2020-10-29
MSZ9G7Hjqgj9B5mJ,130039563,130039597,LBM LABOSUD PROVENCE BIOLOGIE SITE MAR - MARSEILLE,14 AV ANDRE ZENATTI 13008 MARSEILLE,,OUI,NON,5.38240617361436,43.2469506454874,Sur place,Tout public,lundi : 7h00-19h00  | mardi : 7h00-19h00  | mercredi :7h00-19h00  | jeudi : 7h00-19h00  | vendredi : 7h00-19h00  | samedi : 7h30-12h30 | dimanche : fermé,,sur rendez vous,04 91 73 05 00,,2020-10-29
UfyO1Tf3FiPEk4KR,130039563,130039605,LBM LABOSUD PROVENCE BIOLOGIE SITE MAR - MARSEILLE,108 AV DE HAMBOURG 13008 MARSEILLE,,OUI,NON,5.38922671364434,43.2500208446064,Sur place,Tout public,lundi : 7h00-19h00  | mardi : 7h00-19h00  | mercredi :7h00-19h00  | jeudi : 7h00-19h00  | vendredi : 7h00-19h00  | samedi : 7h30-12h30 | dimanche : fermé,,sur rendez vous,04 91 73 52 25,,2020-10-29
O20bvL9LC0pHVIYO,130039563,130039613,LBM LABOSUD PROVENCE BIOLOGIE SITE MAR - MARSEILLE,233 R D'ENDOUME 13007 MARSEILLE,,OUI,NON,5.35817085765325,43.2842390043836,Sur place,Tout public,lundi : 7h00-19h00  | mardi : 7h00-19h00  | mercredi :7h00-19h00  | jeudi : 7h00-19h00  | vendredi : 7h00-19h00  | samedi : 7h00-12h00 | dimanche : fermé,,sur rendez vous,04 91 52 02 87,,2020-10-29
vJD591m06u5tlBuv,130039563,130039985,LBM LABOSUD PROVENCE BIOLOGIE SITE MAR - MARSEILLE,172 AV DU 24 AVRIL 1915 13012 MARSEILLE,,OUI,NON,5.43610056276754,43.308279549558,Sur place,Tout public,lundi : 07h00-18h30 | mardi :07h00-18h30 | mercredi : 07h00-18h30 | jeudi :07h00-18h30 | vendredi : 07h00-18h30 | samedi : 07h30-12h00 | dimanche : fermé,,sur rendez vous,04 91 88 25 25,,2020-10-29
4Ts5Lje4MgLcAJvM,130039563,130039993,LBM LABOSUD PROVENCE BIOLOGIE SITE MAR - MARSEILLE,21 TRA DES ROSIERS 13014 MARSEILLE,,OUI,NON,5.38719325097594,43.3228822230156,Sur place,Tout public,lundi : 7h00-17h00  | mardi : 7h00-17h00  | mercredi : 7h00-17h00  | jeudi :7h00-17h00  | vendredi : 7h00-17h00  | samedi : 7h30-12h00 | dimanche : fermé,,sur rendez vous,04 91 98 22 36,,2020-10-29
j4qO1hitIwSUM8u9,130039563,130040009,LBM LABOSUD PROVENCE BIOLOGIE SITE MAR - MARSEILLE,50 R PAUL COXE 13015 MARSEILLE,,OUI,NON,5.37799318718835,43.3464453174691,Sur place,Tout public,lundi : 7h30-14h30 | mardi : 7h30-14h30 | mercredi : 7h30-14h30 | jeudi : 7h30-14h30 | vendredi : 7h30-14h30 | samedi : 7h30-12h00 | dimanche : fermé,,sur rendez vous,04 91 03 06 50,,2020-10-29
w30gabTh8Bp8kmIr,130039563,130040454,LBM LABOSUD PROVENCE BIOLOGIE SITE DE,47 RTE NATIONALE 13112 LA DESTROUSSE,,OUI,NON,5.60534051358206,43.376960477417,Sur place,Tout public,lundi : 7h00-19h00  | mardi : 7h00-19h00  | mercredi :7h00-19h00  | jeudi : 7h00-19h00  | vendredi : 7h00-19h00  | samedi : 7h00-12h00 | dimanche : fermé,,sur rendez vous,04 42 04 87 07,,2020-10-29
xblLgkrvxwzLOIUS,130039563,130040462,LBM LABOSUD PROVENCE BIOLOGIE SITE AUB - AUBAGNE,2 AV JOSEPH FALLEN 13400 AUBAGNE,,OUI,NON,5.56599952047718,43.2929621801563,Sur place,Tout public,lundi : 7h00-19h00  | mardi : 7h00-19h00  | mercredi :7h00-19h00  | jeudi : 7h00-19h00  | vendredi : 7h00-19h00  | samedi : 7h00-13h00 | dimanche : fermé,,sur rendez vous,04 42 36 90 90,,2020-10-29
vtn27jQLsaV0byac,130039563,130040470,LBM LABOSUD PROVENCE BIOLOGIE SITE AUB - AUBAGNE,99 R DE LA REPUBLIQUE 13400 AUBAGNE,,OUI,NON,5.57207141171191,43.2896433962785,Sur place,Tout public,lundi : 7h30-12h00 et 14h30-18h30 | mardi : 7h30-12h00 et 14h30-18h30 | mercredi : 7h30-12h00 et 14h30-18h30 | jeudi : 7h30-12h00 et 14h30-18h30 | vendredi :7h30-12h00 et 14h30-18h30 | samedi : 7h30-12h00  | dimanche : fermé,,sur rendez vous,04 42 72 16 00,,2020-10-29
wHa36dlk37XhMFR0,130039563,130040488,LBM LABOSUD PROVENCE BIOLOGIE SITE MAR - MARSEILLE,5 TRA DE LA VERRERIE 13010 MARSEILLE,,OUI,NON,5.41966455786585,43.2783786471435,Sur place,Tout public,lundi : 7h00-19h00  | mardi : 7h00-19h00  | mercredi :7h00-19h00  | jeudi : 7h00-19h00  | vendredi : 7h00-19h00  | samedi : 7h00-12h00 | dimanche : fermé,,sur rendez vous,04 91 79 70 67,,2020-10-29
vUpkCTBZ8zXYhJyF,130039563,130040496,LBM LABOSUD PROVENCE BIOLOGIE SITE MAR - MARSEILLE,205 AV DE LA CAPELETTE 13010 MARSEILLE,,OUI,NON,5.40892599115208,43.2802664590902,Sur place,Tout public,lundi : 7h00-19h00  | mardi : 7h00-19h00  | mercredi :7h00-19h00  | jeudi : 7h00-19h00  | vendredi : 7h00-19h00  | samedi : 7h00-12h00 | dimanche : fermé,,sur rendez vous,04 91 29 74 90,,2020-10-29
RaPlQlQiMBlf16qa,130039563,130040504,LBM LABOSUD PROVENCE BIOLOGIE SITE MAR - MARSEILLE,98 R DE L AUDIENCE 13011 MARSEILLE,,OUI,NON,5.48790978250446,43.2956054124185,Sur place,Tout public,lundi : 7h00-13h00 et 14h30-18h30 | mardi : 7h00-13h00 et 14h30-18h30 | mercredi :7h00-13h00 et 14h30-18h30 | jeudi :7h00-13h00 et 14h30-18h30 | vendredi :7h00-13h00 et 14h30-18h30 | samedi : 7h00-12h00 | dimanche : fermé,,sur rendez vous,0 4 91 43 25 55,,2020-10-29
F1r5tiogA70TAPY0,130039563,130040512,LBM LABOSUD PROVENCE BIOLOGIE SITE MAR - MARSEILLE,5 R ROUVIERE 13001 MARSEILLE,,OUI,NON,5.37945957037326,43.2946753966227,Sur place,Tout public,lundi : 7h00-19h00  | mardi : 7h00-19h00  | mercredi :7h00-19h00  | jeudi : 7h00-19h00  | vendredi : 7h00-19h00  | samedi : 7h00-12h00 | dimanche : fermé,,sur rendez vous,04 91 33 30 20,,2020-10-29
p9Uv38mwimNsq5QD,130039563,130040520,LBM LABOSUD PROVENCE BIOLOGIE SITE LA - LA BOUILLADISSE,4 AV DE LA LIBERATION 13720 LA BOUILLADISSE,,OUI,NON,5.59410959828431,43.3939021425478,Sur place,Tout public,lundi : 7h00-19h00  | mardi : 7h00-19h00  | mercredi :7h00-19h00  | jeudi : 7h00-19h00  | vendredi : 7h00-19h00  | samedi : 7h00-12h00 | dimanche : fermé,,sur rendez vous,04 42 70 71 90,,2020-10-29
ZhK12NEcWQbmKEXD,130039563,130040538,LBM LABOSUD PROVENCE BIOLOGIE SITE LA - LA PENNE SUR HUVEAUNE,30 BD DE LA GARE 13821 LA PENNE SUR HUVEAUNE,,OUI,NON,5.5150746161565,43.2836040261983,Sur place,Tout public,lundi : 7h00-12h30 et 14h30-18h30 | mardi : 7h00-12h30 et 14h30-18h30 | mercredi : 7h00-12h30 et 14h30-18h30 | jeudi : 7h00-12h30 et 14h30-18h30 | vendredi : 7h00-12h30 et 14h30-18h30 | samedi :7h00-12h00 | dimanche : fermé,,sur rendez vous,04 91 36 13 03,,2020-10-29
AeLJ1PHCzgyugVdA,130039563,130040546,LBM LABOSUD PROVENCE BIOLOGIE SITE POR - PORT ST LOUIS DU RHONE,29 AV DU PORT 13230 PORT ST LOUIS DU RHONE,,OUI,NON,4.80236340928302,43.3889755952264,Sur place,Tout public,lundi : 7h30-12h00 et 14h00-18h00 | mardi : 7h30-12h00 et 14h00-18h00 | mercredi :7h30-12h00 et 14h00-18h00 | jeudi : 7h30-12h00 et 14h00-18h00 | vendredi : 7h30-12h00 et 14h00-18h00 | samedi : 8h00-12h00 | dimanche : fermé,,sur rendez vous,04 42 86 04 14,,2020-10-29
jpb92f4j1hu6isrO,130039563,130040595,LBM LABOSUD PROVENCE BIOLOGIE SITE GIG,4 LOT DE LA FONSE QUA FAUCON 13180 GIGNAC LA NERTHE,,OUI,NON,5.22894583772517,43.3929575559862,Sur place,Tout public,lundi : 7h00-19h00  | mardi : 7h00-19h00  | mercredi :7h00-19h00  | jeudi : 7h00-19h00  | vendredi : 7h00-19h00  | samedi : 8h00-12h30 | dimanche : fermé,,sur rendez vous,04 42 30 58 17,,2020-10-29
HowTcUw5mWS8YJqs,130039563,130040611,LBM LABOSUD PROVENCE BIOLOGIE SITE MAR - MARSEILLE,176 AV DU PRADO 13008 MARSEILLE,,OUI,NON,5.38783268166799,43.2779781013918,Sur place,Tout public,lundi : 7h30-12h30 et 14h00-18h30 | mardi : 7h30-12h30 et 14h00-18h30 | mercredi : 7h30-12h30 et 14h00-18h30 | jeudi : 7h30-12h30 et 14h00-18h30 | vendredi : 7h30-12h30 et 14h00-18h30 | samedi : 8h00-12h00 | dimanche : fermé,,sur rendez vous,04 91 37 95 59,,2020-10-29
rTVERMmXqvm8dfk6,130039563,130040629,LBM LABOSUD PROVENCE BIOLOGIE SITE MAR - MARSEILLE,301 AV DU PRADO 13008 MARSEILLE,,OUI,NON,5.39080253056687,43.2718889831817,Sur place,Tout public,lundi : 7h30-18h00  | mardi : 7h30-18h00  | mercredi : 7h30-18h00  | jeudi : 7h30-18h00  | vendredi : 7h30-18h00  | samedi : 8h00-12h00 | dimanche : fermé,,sur rendez vous,04 91 77 08 94,,2020-10-29
sgDWHLAAqG8lmqRL,130039563,130040637,LBM LABOSUD PROVENCE BIOLOGIE SITE MAR - MARSEILLE,2 R LOUIS MAUREL 13006 MARSEILLE,,OUI,NON,5.3828805067858,43.2857164262532,Sur place,Tout public,lundi : 7h00-18h30  | mardi : 7h00-18h30  | mercredi : 7h00-18h30  | jeudi : 7h00-18h30  | vendredi : 7h00-18h30  | samedi : 7h30-12h00 | dimanche : fermé,,sur rendez vous,04 91 37 75 56,,2020-10-29
2gYzrgA6MdQLpsye,130039563,130040801,LBM LABOSUD PROVENCE BIOLOGIE SITE LE - LE ROVE,64 RTE NATIONALE 568 13740 LE ROVE,,OUI,NON,5.25157217592463,43.3683030403962,Sur place,Tout public,lundi : 6h45-19h00 | mardi : 6h45-19h00 | mercredi : 6h45-19h00 | jeudi : 6h45-19h00 | vendredi : 6h45-19h00 | samedi : 7h30-12h00 | dimanche : fermé,,sur rendez vous,04 91 09 98 19,,2020-10-29
XBQwdwQbSJ59q5Hi,130039563,130041270,LBM LABOSUD PROVENCE BIOLOGIE SITE MAR - MARSEILLE,66 TRA SAINT JEAN DU DESERT 13012 MARSEILLE,,OUI,NON,5.4364993095904,43.2990815906336,Sur place,Tout public,lundi : 7h30-12h30 et 14h30-18h30 | mardi : 7h30-12h30 et 14h30-18h30 | mercredi : 7h30-12h30 et 14h30-18h30 | jeudi : 7h30-12h30 et 14h30-18h30 | vendredi : 7h30-12h30 et 14h30-18h30 | samedi : 7h30-12h00 | dimanche : fermé,,sur rendez vous,04 91 93 02 40,,2020-10-29
Nxgcawi5JnoLz8vp,130039563,130041411,LBM LABOSUD PROVENCE BIOLOGIE SITE MAR - MARSEILLE,16 R DRAGON 13006 MARSEILLE,,OUI,NON,5.38131289603077,43.2885057820673,Sur place,Tout public,lundi : 7h30-19h00 | mardi : 7h30-19h00 | mercredi : 7h30-19h00 | jeudi :7h30-19h00 | vendredi : 7h30-19h00 | samedi : 7h30-12h00 | dimanche : fermé,,sur rendez vous,04 91 53 32 42,,2020-10-29
mpoWM8vK9hwxsmlY,130039563,130041429,LBM LABOSUD PROVENCE BIOLOGIE SITE MAR - MARSEILLE,52 R FRANCIS DAVSO 13001 MARSEILLE,,OUI,NON,5.37497352127403,43.2928814408181,Sur place,Tout public,lundi : 7h15-18h30 | mardi : 7h15-18h30 | mercredi : 7h15-18h30 | jeudi : 7h15-18h30 | vendredi : 7h15-18h30 | samedi : fermé | dimanche : fermé,,sur rendez vous,04 91 33 06 61,,2020-10-29
xLWle2WKjBCxUiWk,130039563,130041437,LBM LABOSUD PROVENCE BIOLOGIE SITE MAR - MARSEILLE,14 SQ BELSUNCE 13001 MARSEILLE,,OUI,NON,5.37631399884625,43.2979935049022,Sur place,Tout public,lundi : 7h00-18h30 | mardi : 7h00-18h30 | mercredi : 7h00-18h30 | jeudi : 7h00-18h30 | vendredi : 7h00-18h30 | samedi : 7h30-12h00 | dimanche : fermé,,sur rendez vous,04 91 91 06 99,,2020-10-29
WcyHWbuiIVsyW32m,130039563,130041445,LBM LABOSUD PROVENCE BIOLOGIE SITE MAR - MARSEILLE,11 PL BERNARD CADENAT 13003 MARSEILLE,,OUI,NON,5.38704965648669,43.3124212129063,Sur place,Tout public,lundi : 7h00-18h30 | mardi : 7h00-18h30 | mercredi : 7h00-18h30 | jeudi : 7h00-18h30 | vendredi : 7h00-18h30 | samedi : 7h30-12h00 | dimanche : fermé,,sur rendez vous,04 91 08 03 88,,2020-10-29
ipdtgFicIv9idiUa,130039563,130041452,LBM LABOSUD PROVENCE BIOLOGIE SITE MAR - MARSEILLE,82 R ALPHONSE DAUDET 13013 MARSEILLE,,OUI,NON,5.40917200824215,43.3196254194523,Sur place,Tout public,lundi : 7h00-18h30 | mardi : 7h00-18h30 | mercredi : 7h00-18h30 | jeudi : 7h00-18h30 | vendredi : 7h00-18h30 | samedi : 7h30-12h00 | dimanche : fermé,,sur rendez vous,04 91 66 43 64,,2020-10-29
vy9HBkMzLwb3Saj5,130039563,130041478,LBM LABOSUD PROVENCE BIOLOGIE SITE MAR - MARSEILLE,8 AV DE CHATEAU GOMBERT 13013 MARSEILLE,,OUI,NON,5.43432955383385,43.3517640588764,Sur place,Tout public,lundi : 6h30-19h00  | mardi : 6h30-19h00  | mercredi :6h30-19h00  | jeudi : 6h30-19h00  | vendredi : 6h30-19h00  | samedi : 7h00-12h00 | dimanche : fermé,,sur rendez vous,04 91 68 24 92,,2020-10-29
CNuQemx3xe05tbCk,130039563,130041486,LBM LABOSUD PROVENCE BIOLOGIE SITE MAR - MARSEILLE,AV ALBERT EINSTEIN 13013 MARSEILLE,,OUI,NON,5.44162280396515,43.3398444156717,Sur place,Tout public,lundi : 7h00-19h00  | mardi : 7h00-19h00  | mercredi :7h00-19h00  | jeudi : 7h00-19h00  | vendredi : 7h00-19h00  | samedi : 7h00-12h00 | dimanche : fermé,,sur rendez vous,04 13 42 03 10,,2020-10-29
YWPrPcbkUPxMOdQ5,130039563,130041494,LBM LABOSUD PROVENCE BIOLOGIE SITE MAR - MARSEILLE,15 AV FRANCOIS MIGNET 13013 MARSEILLE,,OUI,NON,5.42727797462985,43.3301798406651,Sur place,Tout public,lundi : 6h30-18h30  | mardi : 6h30-18h30 | mercredi : 6h30-18h30 | jeudi : 6h30-18h30 | vendredi : 6h30-18h30 | samedi : 7h00-12h00 | dimanche : fermé,,sur rendez vous,04 91 06 14 60,,2020-10-29
nOT0Sddpkg9jGlBV,130039563,130041502,LBM LABOSUD PROVENCE BIOLOGIE SITE MAR - MARSEILLE,1 Boulevard de la Concorde 13009 Marseille,,OUI,NON,5.403315,43.250348,Sur place,Tout public,lundi : 7h00-19h00  | mardi : 7h00-19h00  | mercredi :7h00-19h00  | jeudi : 7h00-19h00  | vendredi : 7h00-19h00  | samedi : 7h00-12h00 | dimanche : fermé,,sur rendez vous,04 91 40 14 08,,2020-10-29
kElJa7PiTQRuxuMg,130039563,130041882,LBM LABOSUD PROVENCE BIOLOGIE SITE MIR - MIRAMAS,46 AV CHARLES DE GAULLE 13140 MIRAMAS,,OUI,NON,5.00165690003578,43.583620486704,Sur place,Tout public,lundi : 7h30-12h30 | mardi : 7h30-12h30 | mercredi : 7h30-12h30 | jeudi : 7h30-12h30 | vendredi : 7h30-12h30 | samedi : 7h30-12h00 | dimanche : fermé,,sur rendez vous,04 90 58 00 35,,2020-10-29
pIb4Kg9B2IUbMCFf,130039563,130041890,LBM LABOSUD PROVENCE BIOLOGIE SITE ST - ST CHAMAS,AV DE SAINT EXUPERY 13250 ST CHAMAS,,OUI,NON,5.03362535942167,43.5534880633856,Sur place,Tout public,lundi : 7h30-12h30 et 14h00-18h30 | mardi : 7h30-12h30 et 14h00-18h30 | mercredi : 7h30-12h30 et 14h00-18h30 | jeudi : 7h30-12h30 et 14h00-18h30 | vendredi : 7h30-12h30 et 14h00-18h30 | samedi : 7h30-12h00 | dimanche : fermé,,sur rendez vous,04 90 50 70 30,doctolib.fr,2020-10-29
wenxu60O4c13MrQx,130039563,130042468,LBM LABOSUD PROVENCE BIOLOGIE SITE MAR - MARSEILLE,112 PLAG DE L ESTAQUE 13016 MARSEILLE,,OUI,NON,5.31244687488938,43.3612331250948,Sur place,Tout public,lundi : 7h00-18h30 | mardi : 7h00-18h30 | mercredi : 7h00-18h30 | jeudi : 7h00-18h30 | vendredi : 7h00-18h30 | samedi : 8h00-12h00 | dimanche : fermé,,sur rendez vous,04 91 09 32 72,,2020-10-29
NptbRZLOxfStMjXc,130039563,130042476,LBM LABOSUD PROVENCE  BIOLOGIE SITE MA,57 CHE DE SAINT ANTOINE 13015 MARSEILLE,,OUI,NON,5.35630755050411,43.3691554752988,Sur place,Tout public,lundi : 7h00-19h00  | mardi : 7h00-19h00  | mercredi :7h00-19h00  | jeudi : 7h00-19h00  | vendredi : 7h00-19h00  | samedi : 8h00-12h00 | dimanche : fermé,,sur rendez vous,04 96 15 81 10,,2020-10-29
Se1zoAXTbpeitwXI,130039563,130042948,LBM LABOSUD PROVENCE BIOLOGIE SITE MAR - MARTIGUES,14 BD GABRIEL PERI 13117 MARTIGUES,,OUI,NON,5.0530543993177,43.4110854320019,Sur place,Tout public,lundi : 7h30-18h30 | mardi : 7h30-18h30 | mercredi : 7h30-18h30 | jeudi : 7h30-18h30 | vendredi : 7h30-18h30 | samedi : 7h30-12h30 | dimanche : fermé,,sur rendez vous,04 42 80 15 92,,2020-10-29
6CcHYb7MWJsMV1e2,130039563,130042955,LBM LABOSUD PROVENCE BIOLOGIE SITE MAR - MARTIGUES,ZAC CANTO PERDRIX 13117 MARTIGUES,,OUI,NON,5.05291686196605,43.4180617411167,Sur place,Tout public,llundi : 7h30-18h30 | mardi : 7h30-18h30 | mercredi : 7h30-18h30 | jeudi : 7h30-18h30 | vendredi : 7h30-18h30 | samedi : 7h30-12h30 | dimanche : fermé,,sur rendez vous,04 42 42 03 03,,2020-10-29
TTyWAkXU9PbuiIwr,130039563,130042963,LBM LABOSUD PROVENCE BIOLOGIE SITE MAR - MARIGNANE,AV DU 8 MAI 1945 13700 MARIGNANE,,OUI,NON,5.21740496632594,43.4112402925794,Sur place,Tout public,lundi : 7h00-19h00  | mardi : 7h00-19h00  | mercredi :7h00-19h00  | jeudi : 7h00-19h00  | vendredi : 7h00-19h00  | samedi : 7h30-12h30 | dimanche : fermé,,sur rendez vous,04 42 09 77 31,,2020-10-29
HXp5zsNCyfWK7VCr,130039563,130042971,LBM LABOSUD PROVENCE BIOLOGIE SITE IST - ISTRES,44 CHE DU BORD DE CRAU 13118 ISTRES,,OUI,NON,4.96244806593392,43.525882883451,Sur place,Tout public,lundi : 7h30-18h00 | mardi : 7h30-18h00 | mercredi : 7h30-18h00 | jeudi : 7h30-18h00 | vendredi : 7h30-18h00 | samedi : 7h30-12h00 | dimanche : fermé,,sur rendez vous,04 42 55 00 08,,2020-10-29
e535XEdog3EN80Zy,130039563,130042989,LBM LABOSUD PROVENCE BIOLOGIE SITE POR - PORT DE BOUC,44 AV MAURICE THOREZ 13110 PORT DE BOUC,,OUI,NON,4.98039625490853,43.4035392322521,Sur place,Tout public,lundi : 7h00-18h30 | mardi : 7h00-18h30 | mercredi : 7h00-18h30 | jeudi : 7h00-18h30 | vendredi : 7h00-18h30 | samedi : 7h00-12h00 | dimanche : fermé,,sur rendez vous,04 13 29 00 40,,2020-10-29
jSC4QYKxwv9mCNUZ,130039563,130042997,LBM LABOSUD PROVENCE BIOLOGIE SITE AIX - AIX EN PROVENCE,CRS MIRABEAU 13080 AIX EN PROVENCE,,OUI,NON,5.44902355335499,43.5267597533397,Sur place,Tout public,lundi : 7h30-18h30 | mardi : 7h30-18h30 | mercredi : 7h30-18h30 | jeudi : 7h30-18h30 | vendredi : 7h30-18h30 | samedi : 7h30-12h00 | dimanche : fermé,,sur rendez vous,04 42 27 85 74,,2020-10-29
txxwywaCPJifWEDB,130039563,130043003,LBM LABOSUD PROVENCE BIOLOGIE SITE AIX - AIX EN PROVENCE,355 RTE DE BERRE 13080 AIX EN PROVENCE,,OUI,NON,5.41257265501459,43.5343383348108,Sur place,Tout public,lundi : 7h30-18h30 | mardi : 7h30-18h30 | mercredi : 7h30-18h30 | jeudi : 7h30-18h30 | vendredi : 7h30-18h30 | samedi : 7h30-12h00 | dimanche : fermé,,sur rendez vous,04 42 95 09 95,,2020-10-29
DM4lXrYbvyonPUpF,130039563,130043011,LBM LABOSUD PROVENCE BIOLOGIE SITE LE - AIX EN PROVENCE,203 DOM DE L'ESCALADE 13080 AIX EN PROVENCE,local dédié,OUI,NON,5.44743354825374,43.5297427296859,Sur place,Tout public,lundi : 7h00-18h30 | mardi : 7h00-18h30 | mercredi : 7h00-18h30 | jeudi : 7h00-18h30 | vendredi : 7h00-18h30 | samedi : 7h30-12h00 | dimanche : fermé,,sur rendez vous,04 42 96 92 12,,2020-10-29
9k9p2FopGPPUvDkJ,130039563,130043029,LBM LABOSUD PROVENCE BIOLOGIE SITE ST - ST MITRE LES REMPARTS,3 R MAROTTE 13920 ST MITRE LES REMPARTS,,OUI,NON,5.01411542331119,43.4540585006706,Sur place,Tout public,lundi : 7h30-12h00 et 14h30-18h00 | mardi : 7h30-12h00 et 14h30-18h00 | mercredi : 7h30-12h00 et 14h30-18h00 | jeudi : 7h30-12h00 et 14h30-18h00 | vendredi : 7h30-12h00 et 14h30-18h00 | samedi : 7h30-12h00 | dimanche : fermé,,sur rendez vous,04 42 49 18 12,,2020-10-29
c6Sv6sT0zHELt4g7,130039563,130043474,LBM LABOSUD PROVENCE BIOLOGIE SITE MAR - MARSEILLE,98 BD CHAVE 13005 MARSEILLE,,OUI,NON,5.39255893920349,43.295230361633,Sur place,Tout public,lundi : 7h30-19h00  | mardi : 7h30-19h00  | mercredi : 7h30-19h00  | jeudi : 7h30-19h00  | vendredi : 7h30-19h00  | samedi : 7h30-12h30 | dimanche : fermé,,sur rendez vous,04 91 47 81 96,,2020-10-29
siMNYlfO5Qx5dJWK,130039563,130043599,LBM LABOSUD PROVENCE BIOLOGIE SITE AUB - AUBAGNE,1320 RTE NATIONALE 8 13400 AUBAGNE,,OUI,NON,5.59660822581443,43.2830685664051,Sur place,Tout public,lundi : 7h00-18h30 | mardi : 7h00-18h30 | mercredi : 7h00-18h30 | jeudi : 7h00-18h30 | vendredi : 7h00-18h30 | samedi : 7h00-12h00 | dimanche : fermé,,sur rendez vous,04 42 84 10 98,,2020-10-29
tr1CjAOcCyus1t15,130039563,130043763,LBM LABOSUD PROVENCE BIOLOGIE SITE VEL,39 R JULES ANDRAUD 13880 VELAUX,,OUI,NON,5.2582579831559,43.5233059892013,Sur place,Tout public,Prise de rendez-vous entre 7h00 et 13h00,,sur rendez vous,04 42 34 73 66,,2020-10-29
r2tPj1MzjU1tcBWz,130039563,130043888,LBM LABOSUD PROVENCE BIOLOGIE SITE MAR - MARSEILLE,160 AV DE FRAIS VALLON 13013 MARSEILLE,,OUI,NON,5.43527479956675,43.3246737602244,Sur place,Tout public,lundi : 7h00-13h00 et 14h30-18h30 | mardi : 7h00-13h00 et 14h30-18h30 | mercredi : 7h00-13h00 et 14h30-18h30 | jeudi : 7h00-13h00 et 14h30-18h30 | vendredi : 7h00-13h00 et 14h30-18h30 | samedi : 7h00-12h00 | dimanche : fermé,,sur rendez vous,04 13 42 39 00,,2020-10-29
yzZ9HFAp1zPdwpC3,130039563,130044647,LBMLABOSUD PROVENCE BIOLOGIE SITE MARS,40 AV DE LA ROSE 13013 MARSEILLE,,OUI,NON,5.41918451810488,43.3247568644744,Sur place,Tout public,lundi : 13h30 - 16h00 | mardi : 13h30 - 16h00 | mercredi : 13h30 - 16h00 | jeudi : 13h30 - 16h00 | vendredi : 13h30 - 16h00 | samedi : 13h30 - 16h00 | dimanche : fermé,,sur rendez vous,0491666802,,2020-10-29
lahTr1YZ39EGrGiE,130039621,AUTRE,LBM SYNLAB PROVENCE SITE MANOSQUE,Avenue du Majoral Raoul Arnaud 04100 Manosque,Laboratoire,OUI,NON,5.781829,43.830704,Sur place/En EHPAD/En étab. santé,Tout public,Prise de RDV : manosque-centre@provence.synlab.fr,,Sur rendez-vous uniquement,0492705875,manosque-centre@provence.synlab.fr,2020-10-29
P816wdp7CK2QdozC,130039621,040004749,LBM SYNLAB PROVENCE SITE GREOUX,14 AV DES ALPES 04800 GREOUX LES BAINS,,OUI,NON,5.88229926558201,43.7582176161169,Sur place/En EHPAD/En étab. santé,Tout public,Prise de RDV : greoux@provence.synlab.fr,,Sur rendez-vous uniquement,0492742422,greoux@provence.synlab.fr,2020-10-29
5bCIi6DTJEn6qhRi,130039621,040004814,LBM SYNLAB PROVENCE SITE FORCALQUIER,R DU SOUVENIR FRANCAIS 04300 FORCALQUIER,,OUI,NON,5.78001678739651,43.9610350745043,Sur place/En EHPAD/En étab. santé,Tout public,Prise de RDV : forqualcier@provence.synlab.fr,,Sur rendez-vous uniquement,0492750792,forqualcier@provence.synla.fr,2020-10-29
KAYFvxA6zemHsdlq,130039621,130021405,LBM SYNLAB PROVENCE SITE SAINTE MARTHE,174 CHE DE SAINTE MARTHE 13014 MARSEILLE,,OUI,NON,5.38778318006248,43.3288793674208,Sur place/En EHPAD/En étab. santé,Tout public,Prise de RDV : sainte-marthe@provence.synlab.fr,,Sur rendez-vous uniquement,0491981327,sainte-marthe@provence.synlab.fr,2020-10-29
kuNKFLWPAWmjcPd0,130039621,130039316,LBM SYNLAB PROVENCE  SITE LE PUY SAINTE REPARADE,6 AV DU COURS 13610 LE PUY STE REPARADE,,OUI,NON,5.43472915618788,43.6621313270054,Sur place/En EHPAD/En étab. santé,Tout public,Prise de RDV : le-puy-sainte-reparade@provence.synlab.fr,,Sur rendez-vous uniquement,0442619281,le-puy-sainte-reparade@provence.synlab.fr,2020-10-29
Bx7w9PExtMyQ9T88,130039621,130039324,LBM SYNLAB PROVENCE SITE ROGNAC,2 Avenue Charles de Gaulle 13340 Rognac,,OUI,NON,5.229995,43.488584,Sur place/En EHPAD/En étab. santé,Tout public,Prise de RDV : rognac@provence.synlab.fr,,Sur rendez-vous uniquement,0442875110,rognac@provence.synlab.fr,2020-10-29
Aq2thXsHMstruI5V,130039621,130039639,LBM SYNLAB PROVENCE VERT COTEAU,93 AV DES CAILLOLS 13012 MARSEILLE,,OUI,NON,5.43170679313189,43.3036588973363,Sur place/En EHPAD/En étab. santé,Tout public,Prise de RDV : vert-coteau@provence.synlab.fr,,Sur rendez-vous uniquement,0491184240,vert-coteau@provence.synlab.fr,2020-10-29
BByDJgOqkxAybozs,130039621,130039647,LBM SYNLAB PROVENCE SITE BRETEUIL,222 R BRETEUIL 13006 MARSEILLE,,OUI,NON,5.37827252976196,43.2805036662961,Sur place/En EHPAD/En étab. santé,Tout public,Prise de RDV : haut-breteuil@provence.synlab.fr,,Sur rendez-vous uniquement,0491532491,haut-breteuil@provence.synlab.fr,2020-10-29
lRBYOih6SjCBtmGa,130039621,130039662,LBM SYNLAB PROVENCE SITE CARRY,AV DRAIO DE LA MAR 13620 CARRY LE ROUET,,OUI,NON,5.14266184123698,43.3294126921053,Sur place/En EHPAD/En étab. santé,Tout public,Prise de RDV : carry-le-rouet@provence.synlab.fr,,Sur rendez-vous uniquement,0442451745,carry-le-rouet@provence.synlab.fr,2020-10-29
1UyMd1IDctCBzKo3,130039621,130039670,LBM SYNLAB PROVENCE SITE BOSPHORE,44 BD DU BOSPHORE 13015 MARSEILLE,,OUI,NON,5.36428382191927,43.3713008329031,Sur place/En EHPAD/En étab. santé,Tout public,Prise de RDV : laboratoire.bosphore@provence.synlab.fr,,Sur rendez-vous uniquement,0491656717,laboratoire.bosphore@provence.synlab.fr,2020-10-29
uhaqAymMtcd4gCRw,130039621,130039696,LBM SYNLAB PROVENCE SITE MONTGRAND,9 R MONTGRAND 13006 MARSEILLE,,OUI,NON,5.37872007876204,43.2916533778904,Sur place/En EHPAD/En étab. santé,Tout public,Prise de RDV : montgrand@provence.synlab.fr,,Sur rendez-vous uniquement,0491544224,montgrand@provence.synlab.fr,2020-10-29
Y071KJdbzssNw6GD,130039621,130039712,LBM SYNLAB PROVENCE SITE AIX MIRABEAU,15 CRS MIRABEAU 13080 AIX EN PROVENCE,,OUI,NON,5.44705143981708,43.5266980370681,Sur place/En EHPAD/En étab. santé,Tout public,Prise de RDV : mirabeau@provence.synlab.fr,,Sur rendez-vous uniquement,0442264388,mirabeau@provence.synlab.fr,2020-10-29
1i1qBSpCqoeUR3w5,130039621,130039720,LBM SYNLAB PROVENCE SITE AIX CARDINAL,4 Avenue Malherbe 13100 Aix-en-Provence,,OUI,NON,5.447497,43.524674,Sur place/En EHPAD/En étab. santé,Tout public,Prise de RDV : cardinal@provence.synlab.fr,,Sur rendez-vous uniquement,0442242626,cardinal@provence.synlab.fr,2020-10-29
Apu5a1VWlXUiJPkN,130039621,130039738,LBM SYNLAB PROVENCE SITE ARTS ET METIERS,1 CRS DES ARTS ET METIERS 13080 AIX EN PROVENCE,,OUI,NON,5.45390797446784,43.5298359228591,Sur place/En EHPAD/En étab. santé,Tout public,Prise de RDV : arts-et-metiers@provence.synlab.fr,,Sur rendez-vous uniquement,0442990755,arts-et-metiers@provence.synlab.fr,2020-10-29
uXQgr56A2oUWPpP7,130039621,130039753,LBM SYNLAB PROVENCE SITE SAINT BARNABE,65 AV DE SAINT BARNABE 13012 MARSEILLE,,OUI,NON,5.4129507805848,43.304302438463,Sur place/En EHPAD/En étab. santé,Tout public,Prise de RDV : saint-barnabe@provence.synlab.fr,,Sur rendez-vous uniquement,0491039880,saint-barnabe@provence.synlab.fr,2020-10-29
hyKqW0huQTMxRb0g,130039621,130039761,LBM SYNLAB PROVENCE SITE BELSUNCE,16 CRS BELSUNCE 13001 MARSEILLE,,OUI,NON,5.37651357826521,43.297992716394,Sur place/En EHPAD/En étab. santé,Tout public,Prise de RDV : belsunce@provence.synlab.fr,,Sur rendez-vous uniquement,0496113710,belsunce@provence.synlab.fr,2020-10-29
mJypEddRd6UiW8xt,130039621,130040033,LBM SYNLAB PROVENCE SITE  MAISON MEDICALE DE PROVENCE,160 Allée Nicolas de Staël 13100 Aix-en-Provence,,OUI,NON,5.435269,43.503746,Sur place/En EHPAD/En étab. santé,Tout public,Prise de RDV : laboratoire@provence.synlab.fr,,Sur rendez-vous uniquement,0442382236,laboratoire@provence.synlab.fr,2020-10-29
uVKDeluQaIKjVxuV,130039621,130040298,LBM SYNLAB PROVENCE SITE MAZARGUES,769 AV DE MAZARGUES 13009 MARSEILLE,,OUI,NON,5.39862411808217,43.248421207174,Sur place/En EHPAD/En étab. santé,Tout public,Prise de RDV : mazargues@provence.synlab.fr,,Sur rendez-vous uniquement,0491404082,mazargues@provence.synlab.fr,2020-10-29
7fryyTa2eg0mhhbH,130039621,130040322,LBM SYNLAB PROVENCE SITE DE FUVEAU,2 LOT LE GRAND VALLAT 13710 FUVEAU,,OUI,NON,5.55561217650004,43.4511150965776,Sur place/En EHPAD/En étab. santé,Tout public,Prise de RDV : fuveau@provence.synlab.fr,,Sur rendez-vous uniquement,0442587951,fuveau@provence.synlab.fr,2020-10-29
nGk5A8p7lXQd2sAN,130039621,130040389,LBM SYNLAB PROVENCE SITE SAINT-GINIEZ,121 AV DE MAZARGUES 13008 MARSEILLE,,OUI,NON,5.38972481266415,43.267131357373,Sur place/En EHPAD/En étab. santé,Tout public,Prise de RDV : saint-giniez@provence.synlab.fr,,Sur rendez-vous uniquement,0491779875,saint-giniez@provence.synlab.fr,2020-10-29
YZy72Hy7YTmxJObL,130039621,130040397,LBM SYNLAB PROVENCE SITE REDON,19 BD DU REDON 13009 MARSEILLE,,OUI,NON,5.41976275158876,43.25655677355,Sur place/En EHPAD/En étab. santé,Tout public,Prise de RDV : redon@provence.synlab.fr,,Sur rendez-vous uniquement,0491173173,redon@provence.synlab.fr,2020-10-29
Hsp2cOUwETg4bsR6,130039621,130040405,LBM SYNLAB PROVENCE SITE ROMAIN ROLLAND,271 BD ROMAIN ROLLAND 13009 MARSEILLE,,OUI,NON,5.41260719320083,43.2731537558025,Sur place/En EHPAD/En étab. santé,Tout public,Prise de RDV : romain-rolland@provence.synlab.fr,,Sur rendez-vous uniquement,0491220999,romain-rolland@provence.synlab.fr,2020-10-29
Ar1cicyHX0nA7Ml7,130039621,130040413,LBM SYNLAB PROVENCE SITE LE CAMAS,145 R DU CAMAS 13005 MARSEILLE,,OUI,NON,5.39772811170218,43.294677509899,Sur place/En EHPAD/En étab. santé,Tout public,Prise de RDV : camas@provence.synlab.fr,,Sur rendez-vous uniquement,0491473173,camas@provence.synlab.fr,2020-10-29
ClN9THXPtdFTo6GL,130039621,130040439,LBM SYNLAB PROVENCE SITE LA FARE LES OLIVIERS,Avenue de Montricher 13580 La Fare-les-Oliviers,,OUI,NON,5.184855,43.55025,Sur place/En EHPAD/En étab. santé,Tout public,Prise de RDV : la-fare-les-oliviers@provence.synlab.fr,,Sur rendez-vous uniquement,0490424888,la-Fare-les-Oliviers@provence.synlab.fr,2020-10-29
PPhmzWhDAwSJs8kI,130039621,130040561,LBM SYNLAB PROVENCE SITE TRETS,RTE DE PUYLOUBIER QUA PRAGUES 13530 TRETS,,OUI,NON,5.68322722036992,43.450218060336,Sur place/En EHPAD/En étab. santé,Tout public,Prise de RDV : trets-ste-victoire@provence.synlab.fr,,Sur rendez-vous uniquement,0442613593,trets-ste-victoire@provence.synlab.fr,2020-10-29
YGdqYEjepH7VGBCY,130039621,130040710,LBM SYNLAB PROVENCE SITE LA ROQUE D'ANTHERON,CTRE CTRE COMMERCIAL LA FENIERE 13640 LA ROQUE D ANTHERON,,OUI,NON,5.30837293478031,43.7154398602855,Sur place/En EHPAD/En étab. santé,Tout public,Prise de RDV : la-roque-dantheron@provence.synlab.fr,,Sur rendez-vous uniquement,0442504096,la-roque-dantheron@provence.synlab.fr,2020-10-29
sEwlTxKVCogvcLKG,130039621,130041296,LBM SYNLAB PROVENCE SITE  ODDO,110 BD ODDO 13015 MARSEILLE,,OUI,NON,5.36539833038463,43.3291121561725,Sur place/En EHPAD/En étab. santé,Tout public,Prise de RDV : oddo@provence.synlab.fr,,Sur rendez-vous uniquement,0491101070,oddo@provence.synlab.fr,2020-10-29
FeRUj6rudnrAYE2a,130039621,130041320,LBM SYNLAB PROVENCE SITE JEAN JAURES,42 Place Jean Jaures 13001 Marseille,,OUI,NON,5.385506,43.294463,Sur place/En EHPAD/En étab. santé,Tout public,Prise de RDV : plaine.jean-jaures@provence.synlab.fr,,Sur rendez-vous uniquement,0491365260,plaine.jean-jaures@provence.synlab.fr,2020-10-29
5adZWzzVSkNE9Pmg,130039621,130041338,LBM SYNLAB PROVENCE SITE MALPASSE,13 AV RAYMONDE MARTIN 13013 MARSEILLE,,OUI,NON,5.41006403442029,43.329195963402,Sur place/En EHPAD/En étab. santé,Tout public,Prise de RDV : malpasse@provence.synlab.fr,,Sur rendez-vous uniquement,0491585819,malpasse@provence.synlab.fr,2020-10-29
zTZXs8aeSnKkUBg3,130039621,130041650,LBM SYNLAB PROVENCE SITE 4 SEPTEMBRE,7 PL DU QUATRE SEPTEMBRE 13007 MARSEILLE,,OUI,NON,5.35873817734469,43.2884717243193,Sur place/En EHPAD/En étab. santé,Tout public,Prise de RDV : quatre-septembre@provence.synlab.fr,,Sur rendez-vous uniquement,0491522667,quatre-septembre@provence.synlab.fr,2020-10-29
Dfp47k8oZH7z0gnU,130039621,130041791,LBM SYNLAB PROVENCE SITE BAILLE CONCEPTION,224 BD BAILLE 13005 MARSEILLE,,OUI,NON,5.39690842614857,43.2893048412017,Sur place/En EHPAD/En étab. santé,Tout public,Prise de RDV : baille-conception@provence.synlab.fr,,Sur rendez-vous uniquement,0491782454,baille-conception@provence.synlab.fr,2020-10-29
LvWb0JRkom19gjMX,130039621,130041924,LBM SYNLAB PROVENCE SITE LA CROIX D OR,1596 AV DE LE CROIX D'OR 13320 BOUC BEL AIR,,OUI,NON,5.3999989202181,43.4519878168657,Sur place/En EHPAD/En étab. santé,Tout public,Prise de RDV : croix-dor@provence.synlab.fr,,Sur rendez-vous uniquement,0442663950,croix-dor@provence.synlab.fr,2020-10-29
1p9WNSQw0UVO8g5l,130039621,130042104,LBM SYNLAB PROVENCE SITE CORSY,655 AV JEAN DALMAS 13080 AIX EN PROVENCE,,OUI,NON,5.43043907101144,43.5318026428049,Sur place/En EHPAD/En étab. santé,Tout public,Prise de RDV : corsy@provence.synlab.fr,,Sur rendez-vous uniquement,0442904050,corsy@provence.synlab.fr,2020-10-29
ogN5jAkSoR3ch1X2,130039621,130042153,LBM SYNLAB PROVENCE SITE GEMENOS,636 AV DE TOULON 13420 GEMENOS,,OUI,NON,5.62811930224204,43.2953898860172,Sur place/En EHPAD/En étab. santé,Tout public,Prise de RDV : gemenos@provence.synlab.fr,,Sur rendez-vous uniquement,0442981540,gemenos@provence.synlab.fr,2020-10-29
2w53UqCei6OnIMWm,130039621,130042419,LBM SYNLAB PROVENCE SITE AUBAGNE,1120 Route de Gemenos 13400 Aubagne,,OUI,NON,5.586188,43.297244,Sur place/En EHPAD/En étab. santé,Tout public,Prise de RDV : aubagne.altarocca@provence.synlab.fr,,Sur rendez-vous uniquement,0465070694,aubagne.altarocca@provence.synlab.fr,2020-10-29
cAzgcPuQyLo1VVJ0,130039621,130042500,LBM SYNLAB PROVENCE SITE AIX/AXIUM,42 AV DE LATTRE DE TASSIGNY 13080 AIX EN PROVENCE,,OUI,NON,5.43625391974642,43.5341053330547,Sur place/En EHPAD/En étab. santé,Tout public,Prise de RDV : axiumcovid@gmail.com,,Sur rendez-vous uniquement,0442246990,axiumcovid@gmail.com,2020-10-29
7C7QRuXbIbrOUIc8,130039621,130042674,LBM SYNLAB PROVENCE SITE JOUQUES,La Coudeirie 13490 Jouques,,OUI,NON,5.616383,43.63917,Sur place/En EHPAD/En étab. santé,Tout public,Prise de RDV : jouques@provence.synlab.fr,,Sur rendez-vous uniquement,0442670613,jouques@provence.synlab.fr,2020-10-29
gNB8xbMTCoCyWbAH,130039621,130042682,LBM SYNLAB PROVENCE SITE SAINT EUTROPE,10 Place Antoine Maurel 13100 Aix-en-Provence,,OUI,NON,5.455304,43.542194,Sur place/En EHPAD/En étab. santé,Tout public,Prise de RDV : saint-eutrope@provence.synlab.fr,,Sur rendez-vous uniquement,0442230523,saint-eutrope@provence.synlab.fr,2020-10-29
